     3.04           OBSERVATION DATA    M: Mixed            RINEX VERSION / TYPE
RTKCONV demo5 b34k                      20250317 091921 UTC PGM / RUN BY / DATE 
format: RINEX                                               COMMENT             
log: C:\Users\Ivan_PolyU_Dktp\Dropbox\HUAWEI Exp\20210610\epCOMMENT             
  h\hksc161d.21g                                            COMMENT             
log: C:\Users\Ivan_PolyU_Dktp\Dropbox\HUAWEI Exp\20210610\epCOMMENT             
  h\hksc161d.21o                                            COMMENT             
log: C:\Users\Ivan_PolyU_Dktp\Dropbox\HUAWEI Exp\20210610\epCOMMENT             
  h\hksc161e.21g                                            COMMENT             
HKSC                                                        MARKER NAME         
23014M001                                                   MARKER NUMBER       
                                                            MARKER TYPE         
                                                            OBSERVER / AGENCY   
1870254             LEICA GR50          4.31/7.403          REC # / TYPE / VERS 
725196              LEIAR25.R4      LEIT                    ANT # / TYPE        
 -2414266.9197  5386768.9868  2407460.0314                  APPROX POSITION XYZ 
        0.0083        0.0000        0.0000                  ANTENNA: DELTA H/E/N
G   16 C1C L1C D1C S1C C2W L2W D2W S2W C2S L2S D2S S2S C5Q  SYS / # / OBS TYPES 
       L5Q D5Q S5Q                                          SYS / # / OBS TYPES 
R   12 C1C L1C D1C S1C C2C L2C D2C S2C C2P L2P D2P S2P      SYS / # / OBS TYPES 
E   12 C1C L1C D1C S1C C7Q L7Q D7Q S7Q C5Q L5Q D5Q S5Q      SYS / # / OBS TYPES 
C    8 C2I L2I D2I S2I C7I L7I D7I S7I                      SYS / # / OBS TYPES 
  2021    06    10    03    35   54.0000000     GPS         TIME OF FIRST OBS   
  2021    06    10    03    39   18.0000000     GPS         TIME OF LAST OBS    
G L1C                                                       SYS / PHASE SHIFT   
G L2W  0.00000                                              SYS / PHASE SHIFT   
G L2S -0.25000                                              SYS / PHASE SHIFT   
G L5Q -0.25000                                              SYS / PHASE SHIFT   
R L1C                                                       SYS / PHASE SHIFT   
R L2C                                                       SYS / PHASE SHIFT   
R L2P  0.25000                                              SYS / PHASE SHIFT   
E L1C  0.50000                                              SYS / PHASE SHIFT   
E L7Q -0.25000                                              SYS / PHASE SHIFT   
E L5Q -0.25000                                              SYS / PHASE SHIFT   
C L2I                                                       SYS / PHASE SHIFT   
C L7I                                                       SYS / PHASE SHIFT   
 24 R01  1 R02 -4 R03  5 R04  6 R05  1 R06 -4 R07  5 R08  6 GLONASS SLOT / FRQ #
    R09 -2 R10 -7 R11  0 R12 -1 R13 -2 R14 -7 R15  0 R16 -1 GLONASS SLOT / FRQ #
    R17  4 R18 -3 R19  3 R20  2 R21  4 R22 -3 R23  3 R24  2 GLONASS SLOT / FRQ #
 C1C    0.000 C1P    0.000 C2C    0.000 C2P    0.000        GLONASS COD/PHS/BIS 
                                                            END OF HEADER       
> 2021 06 10 03 35 54.0000000  0 38                     
G01  21017284.400   110446565.03818     -2579.589          49.400    21017287.840    86062265.32418     -2010.072          49.300    21017287.920    86062269.07818     -2010.072          48.550    21017287.380    82476345.82218     -1926.288          51.850  
G03  22181210.040   116563056.44218      1471.531          48.800    22181214.860    90828381.47318      1146.646          48.650    22181215.760    90828385.22317      1146.646          47.050    22181215.840    87043888.15718      1098.898          50.250  
G06  23982477.720   126028784.21217      3156.308          43.150    23982484.720    98204255.13217      2459.458          43.150    23982485.660    98204254.89217      2459.459          43.350    23982485.760    94112411.36417      2357.068          44.750  
G07  22039385.740   115817718.94918     -2996.417          49.150    22039388.120    90247552.08618     -2334.874          48.850    22039388.540    90247568.84217     -2334.874          43.650                                                                  
G08  24988064.800   131313137.37116     -1838.617          40.800    24988071.920   102321955.03715     -1432.688          34.700    24988072.480   102321916.81316     -1432.689          40.100    24988071.900    98058443.41317     -1372.924          42.250  
G14  21249670.880   111667772.95318      2129.861          49.000    21249671.820    87013871.17317      1659.631          45.400    21249672.260    87013854.91818      1659.631          49.150    21249675.940    83388296.42218      1590.435          52.000  
G17  22331734.360   117354060.48818       558.107          48.200    22331735.180    91444740.47717       434.885          47.950    22331735.740    91444730.23817       434.885          45.100                                                                  
G19  23583592.520   123932618.97917      1609.533          44.050    23583593.220    96570876.59816      1254.180          40.300                                                                                                                                  
G21  23750035.620   124807243.11417     -3169.200          46.550    23750036.640    97252368.34916     -2469.510          39.000                                                                                                                                  
G22  22704479.500   119312845.73818      -507.595          48.300    22704478.840    92971090.49317      -395.529          42.400                                                                                                                                  
G28  22678620.340   119176962.01917      2507.336          47.700    22678620.560    92865167.60916      1953.766          40.000                                                                                                                                  
G30  21340540.540   112145301.02418     -1160.183          49.300    21340543.780    87385953.83818      -904.042          49.600    21340544.580    87385931.58618      -904.042          48.650    21340544.700    83744876.29418      -866.348          52.750  
R09  20296287.200   108381000.56718     -2876.573          51.300    20296290.760    84296335.05618     -2237.341          48.600    20296290.800    84296343.30617     -2237.340          47.700  
R10  19341524.120   103101198.53218       876.069          49.050                                                                                                                                  
R20  20828389.620   111378737.78316     -2354.284          37.600    20828394.960    86627904.02017     -1831.112          45.950    20828394.060    86627905.26917     -1831.112          46.350  
R21  21027562.180   112522740.80918       692.661          49.700    21027565.040    87517731.73017       538.733          46.800    21027565.020    87517709.98217       538.734          46.150  
E01  27706921.960   145600865.41917      2651.539          43.550                                                                    27706928.260   108727952.31617      1980.056          42.950  
E13  23629642.520   124174611.38418     -1284.568          51.250    23629645.220    95146779.75016      -984.247          39.350    23629647.300    92727790.37418      -959.229          51.050  
E15  26935891.820   141549046.17417     -2513.075          45.000    26935898.420   108459699.65215     -1925.870          30.700    26935900.260   105702162.41017     -1876.701          42.800  
E21  23973217.320   125980119.89118      1372.667          50.600    23973220.780    96530216.94416      1051.755          39.550    23973222.680    94076072.48318      1025.082          50.900  
E26  24052226.940   126395330.15218      1128.768          49.800    24052232.140    96848378.08816       864.821          38.050    24052234.020    94386130.15118       842.837          49.150  
E27  24045119.940   126357905.26818     -1157.809          50.750    24045124.320    96819698.68816      -887.138          39.200    24045126.380    94358162.39218      -864.593          50.750  
C01  37373469.040   194613454.19917         7.119          47.200                                                                  
C02  37116658.960   193276173.56317        24.155          42.950                                                                  
C03  36383668.680   189459300.62917        37.436          47.350    36383666.680   146501955.82315        29.098          35.000  
C04  38344233.600   199668479.27117         9.743          43.550                                                                  
C05  39259258.220   204433242.58916        25.013          41.000                                                                  
C07  36037824.260   187658398.12917       506.768          47.400    36037820.460   145109354.80916       391.993          36.050  
C08  36444565.000   189776408.93717       424.647          46.850    36444561.800   146747132.74915       328.260          35.900  
C09  39525731.540   205820847.13416     -1475.813          41.500                                                                  
C10  36602033.180   190596386.22617       680.967          45.350    36602032.400   147381187.71515       526.561          34.250  
C11  22742520.020   118426258.34117     -1293.706          47.450    22742519.820    91574695.80516     -1000.409          37.500  
C13  36903171.840   192164493.68817       772.128          47.600    36903177.040   148593796.81015       596.961          32.750  
C14  25255204.860   131510479.60617      2171.643          42.050    25255205.640   101692244.42914      1678.955          28.000  
C23  23220109.740   120913214.35618      1537.921          49.700                                                                  
C24  25664012.380   133639235.05617     -3222.730          47.200                                                                  
C25  22260447.840   115915976.17618     -1416.294          50.400                                                                  
C28  24875627.860   129533919.98417      1408.003          46.500                                                                  
> 2021 06 10 03 35 55.0000000  0 38                     
G01  21017775.360   110449145.050 8     -2580.096          49.300    21017778.800    86064275.723 8     -2010.467          49.500    21017778.880    86064279.477 7     -2010.467          47.750    21017778.340    82478272.457 8     -1926.673          52.550  
G03  22180930.100   116561585.319 8      1470.959          48.750    22180934.920    90827235.143 8      1146.201          48.850    22180935.820    90827238.895 7      1146.201          46.400    22180935.880    87042789.587 8      1098.393          50.900  
G06  23981877.160   126025628.240 7      3155.646          43.300    23981884.160    98201795.933 7      2458.944          43.050    23981885.080    98201795.693 7      2458.944          42.450    23981885.200    94110054.629 7      2356.680          45.350  
G07  22039956.020   115820715.707 8     -2996.722          49.100    22039958.380    90249887.222 8     -2335.110          48.750    22039958.820    90249903.980 7     -2335.110          43.050                                                                  
G08  24988414.720   131314976.092 6     -1838.527          41.050    24988421.860   102323387.841 6     -1432.614          36.650    24988422.400   102323349.593 6     -1432.618          39.200    24988421.820    98059816.505 7     -1373.101          42.900  
G14  21249265.680   111665643.537 8      2129.342          48.950    21249266.620    87012211.887 7      1659.226          44.600    21249267.040    87012195.636 8      1659.226          48.600    21249270.720    83386706.270 8      1590.110          52.700  
G17  22331628.220   117353502.689 7       557.943          47.900    22331629.040    91444305.831 7       434.758          47.950    22331629.600    91444295.592 7       434.758          44.650                                                                  
G19  23583286.300   123931009.834 7      1609.117          43.850    23583287.020    96569622.717 6      1253.855          40.300                                                                                                                                  
G21  23750638.780   124810412.699 7     -3169.634          46.250    23750639.800    97254838.166 6     -2469.846          39.150                                                                                                                                  
G22  22704576.160   119313353.755 8      -508.395          48.300    22704575.500    92971486.352 6      -396.153          40.850                                                                                                                                  
G28  22678143.200   119174454.802 7      2507.080          47.650    22678143.440    92863213.938 6      1953.567          40.100                                                                                                                                  
G30  21340761.400   112146461.691 8     -1161.013          49.250    21340764.640    87386858.253 8      -904.688          49.300    21340765.440    87386836.003 7      -904.688          47.950    21340765.560    83745743.020 8      -866.913          53.400  
R09  20296826.000   108383877.641 8     -2877.378          51.450    20296829.560    84298572.780 7     -2237.966          47.650    20296829.600    84298581.030 7     -2237.965          46.800  
R10  19341359.900   103100323.155 8       875.009          49.300                                                                                                                                  
R20  20828829.940   111381092.406 6     -2354.576          37.300    20828835.280    86629735.400 7     -1831.338          45.300    20828834.380    86629736.647 7     -1831.339          45.500  
R21  21027432.840   112522048.655 8       691.987          49.800    21027435.680    87517193.390 7       538.211          46.100    21027435.680    87517171.640 7       538.212          45.450  
E01  27706417.420   145598214.114 7      2651.293          43.400                                                                    27706423.740   108725972.454 7      1979.865          43.600  
E13  23629887.040   124175896.290 8     -1284.973          51.150    23629889.740    95147764.289 6      -984.537          39.400    23629891.800    92728749.878 8      -959.479          51.750  
E15  26936370.100   141551559.540 7     -2513.320          44.850    26936376.700   108461625.485 5     -1925.871          30.550    26936378.540   105704039.275 7     -1876.801          43.500  
E21  23972956.160   125978747.570 8      1372.223          50.600    23972959.640    96529165.427 6      1051.386          39.800    23972961.540    94075047.698 8      1024.735          51.600  
E26  24052012.220   126394201.801 8      1128.228          49.600    24052017.420    96847513.500 6       864.495          37.950    24052019.300    94385287.547 8       842.531          49.800  
E27  24045340.340   126359063.499 8     -1158.406          50.700    24045344.740    96820586.165 6      -887.620          39.000    24045346.800    94359027.302 8      -865.005          51.350  
C01  37373467.720   194613447.362 7         6.851          47.300                                                                  
C02  37116654.340   193276149.560 7        24.381          42.950                                                                  
C03  36383661.520   189459263.363 7        37.282          47.400    36383659.560   146501927.027 5        28.746          35.050  
C04  38344231.800   199668469.947 7         9.192          43.700                                                                  
C05  39259253.440   204433217.654 6        25.232          41.000                                                                  
C07  36037726.980   187657891.621 7       506.407          47.500    36037723.200   145108963.143 6       391.720          36.050  
C08  36444483.540   189775984.761 7       424.068          46.900    36444480.360   146746804.741 5       327.944          35.950  
C09  39526015.020   205822323.242 6     -1476.171          41.600                                                                  
C10  36601902.440   190595705.507 7       680.772          45.450    36601901.680   147380661.329 5       526.433          34.400  
C11  22742768.500   118427552.320 7     -1293.864          47.750    22742768.320    91575696.399 6     -1000.536          37.700  
C13  36903023.620   192163721.912 7       771.723          47.750    36903028.800   148593200.018 5       596.818          33.000  
C14  25254787.860   131508308.170 7      2171.854          42.300    25254788.660   101690565.349 4      1679.265          28.050  
C23  23219814.480   120911676.865 8      1537.342          49.700                                                                  
C24  25664631.320   133642457.935 7     -3222.699          47.150                                                                  
C25  22260719.920   115917392.968 8     -1416.979          50.500                                                                  
C28  24875357.540   129532512.261 7      1407.651          46.250                                                                  
> 2021 06 10 03 35 56.0000000  0 38                     
G01  21018266.420   110451725.601 8     -2580.587          49.150    21018269.860    86066286.538 8     -2010.850          49.150    21018269.940    86066290.292 8     -2010.850          48.650    21018269.400    82480199.486 8     -1926.985          52.350  
G03  22180650.280   116560114.776 8      1470.473          48.400    22180655.080    90826089.265 8      1145.822          48.600    22180655.980    90826093.018 7      1145.822          46.650    22180656.040    87041691.462 8      1098.063          50.700  
G06  23981276.680   126022472.680 7      3155.633          43.050    23981283.680    98199337.058 7      2458.934          42.900    23981284.600    98199336.816 7      2458.934          42.900    23981284.720    94107698.213 7      2356.469          45.300  
G07  22040526.360   115823712.877 8     -2997.090          48.950    22040528.720    90252222.677 8     -2335.397          48.600    22040529.160    90252239.435 7     -2335.397          43.300                                                                  
G08  24988764.640   131316814.926 6     -1838.848          40.500    24988771.760   102324820.705 6     -1432.862          36.450    24988772.340   102324782.453 6     -1432.867          40.000    24988771.760    98061189.651 7     -1372.996          42.750  
G14  21248860.520   111663514.499 8      2129.201          48.800    21248861.480    87010552.892 7      1659.116          44.950    21248861.900    87010536.643 8      1659.116          49.100    21248865.580    83385116.407 8      1589.949          52.500  
G17  22331522.100   117352945.083 7       557.672          47.600    22331522.940    91443871.331 7       434.548          47.750    22331523.480    91443861.089 7       434.547          44.800                                                                  
G19  23582980.120   123929400.940 7      1608.855          43.600    23582980.840    96568369.028 6      1253.652          40.550                                                                                                                                  
G21  23751241.940   124813582.429 7     -3169.527          46.150    23751243.000    97257308.083 6     -2469.764          39.500                                                                                                                                  
G22  22704672.960   119313862.482 8      -508.876          48.050    22704672.300    92971882.759 6      -396.528          41.250                                                                                                                                  
G28  22677666.120   119171947.772 7      2507.234          47.300    22677666.360    92861260.408 6      1953.689          40.200                                                                                                                                  
G30  21340982.400   112147623.038 8     -1161.524          49.100    21340985.640    87387763.197 8      -905.087          48.800    21340986.440    87387740.947 8      -905.088          48.600    21340986.560    83746610.260 8      -867.301          53.200  
R09  20297364.940   108386755.497 8     -2878.067          51.250    20297368.500    84300811.111 8     -2238.501          48.350    20297368.540    84300819.363 7     -2238.500          47.550  
R10  19341195.860   103099448.761 8       874.120          49.150                                                                                                                                  
R20  20829270.340   111383447.311 6     -2354.912          36.900    20829275.660    86631566.993 7     -1831.600          45.800    20829274.760    86631568.239 7     -1831.600          46.000  
R21  21027303.600   112521357.117 8       691.501          49.700    21027306.440    87516655.527 7       537.832          46.700    21027306.440    87516633.777 7       537.833          46.000  
E01  27705912.920   145595562.964 7      2651.344          43.300                                                                    27705919.240   108723992.695 7      1979.967          43.400  
E13  23630131.620   124177181.562 8     -1285.142          50.850    23630134.320    95148749.107 6      -984.659          39.250    23630136.380    92729709.667 8      -959.702          51.600  
E15  26936848.420   141554073.010 7     -2513.387          44.700    26936854.980   108463551.39115     -1925.842          30.600    26936856.840   105705916.198 7     -1876.629          43.100  
E21  23972695.100   125977375.675 8      1371.954          50.550    23972698.580    96528114.231 6      1051.173          39.550    23972700.480    94074023.235 8      1024.477          51.400  
E26  24051797.600   126393073.921 8      1127.800          49.350    24051802.800    96846649.281 6       864.162          37.850    24051804.660    94384445.291 8       842.364          49.600  
E27  24045560.840   126360222.250 8     -1158.841          50.650    24045565.240    96821474.021 6      -887.740          38.900    24045567.300    94359892.596 8      -865.277          51.300  
C01  37373466.440   194613440.676 7         6.795          47.050                                                                  
C02  37116649.780   193276125.742 7        24.115          43.050                                                                  
C03  36383654.380   189459226.251 7        37.240          47.350    36383652.420   146501898.315 5        28.884          34.850  
C04  38344230.040   199668460.769 7         9.416          43.250                                                                  
C05  39259248.700   204433192.885 6        24.807          40.750                                                                  
C07  36037629.740   187657385.285 7       506.440          47.250    36037625.960   145108571.626 5       391.659          35.900  
C08  36444402.140   189775560.900 7       423.935          46.750    36444398.980   146746476.997 5       327.741          35.500  
C09  39526298.480   205823799.365 6     -1475.857          41.350                                                                  
C10  36601771.760   190595024.946 7       680.636          45.200    36601770.980   147380135.077 5       526.377          34.100  
C11  22743017.040   118428846.499 7     -1294.112          47.600    22743016.860    91576697.137 6     -1000.680          37.400  
C13  36902875.480   192162950.451 7       771.436          47.550    36902880.640   148592603.473 5       596.709          32.650  
C14  25254370.880   131506136.822 7      2171.514          42.050    25254371.640   101688886.285 4      1679.359          28.300  
C23  23219519.340   120910139.996 8      1536.780          49.550                                                                  
C24  25665250.300   133645681.071 7     -3223.118          46.950                                                                  
C25  22260992.120   115918810.380 8     -1417.511          50.350                                                                  
C28  24875087.260   129531104.876 7      1407.477          46.150                                                                  
> 2021 06 10 03 35 57.0000000  0 38                     
G01  21018757.540   110454306.409 8     -2580.990          49.050    21018760.980    86068297.571 8     -2011.159          48.700    21018761.060    86068301.326 8     -2011.159          48.450    21018760.520    82482126.715 8     -1927.336          51.650  
G03  22180370.520   116558644.582 8      1469.950          48.650    22180375.320    90824943.674 8      1145.420          48.050    22180376.220    90824947.429 7      1145.420          47.000    22180376.280    87040593.587 8      1097.667          49.950  
G06  23980676.220   126019317.268 7      3155.296          43.050    23980683.220    98196878.309 7      2458.675          43.000    23980684.140    98196878.067 7      2458.676          43.000    23980684.260    94105341.897 7      2356.234          44.600  
G07  22041096.720   115826710.173 8     -2997.285          48.850    22041099.100    90254558.249 8     -2335.545          48.600    22041099.540    90254575.005 7     -2335.544          43.550                                                                  
G08  24989114.540   131318653.558 6     -1838.770          40.750    24989121.660   102326253.424 5     -1432.800          34.450    24989122.220   102326215.173 6     -1432.802          39.800    24989121.660    98062562.653 6     -1372.990          41.750  
G14  21248455.420   111661385.607 8      2128.764          48.850    21248456.360    87008894.032 7      1658.780          45.350    21248456.780    87008877.782 8      1658.780          49.150    21248460.460    83383526.645 8      1589.704          51.850  
G17  22331415.980   117352387.384 7       557.677          47.700    22331416.840    91443436.781 7       434.557          47.950    22331417.380    91443426.537 7       434.557          45.400                                                                  
G19  23582673.940   123927792.019 7      1608.990          43.850    23582674.660    96567115.342 6      1253.761          40.650                                                                                                                                  
G21  23751845.100   124816752.061 7     -3169.712          46.300    23751846.160    97259777.939 6     -2469.902          38.900                                                                                                                                  
G22  22704769.860   119314371.645 8      -509.312          48.250    22704769.200    92972279.528 7      -396.862          42.850                                                                                                                                  
G28  22677189.020   119169440.652 7      2507.038          47.350    22677189.280    92859306.830 6      1953.541          41.050                                                                                                                                  
G30  21341203.480   112148784.813 8     -1161.978          49.250    21341206.720    87388668.491 8      -905.436          48.900    21341207.540    87388646.239 8      -905.436          48.750    21341207.640    83747477.819 8      -867.709          52.550  
R09  20297903.980   108389633.893 8     -2878.692          51.200    20297907.520    84303049.881 8     -2238.981          48.900    20297907.580    84303058.131 7     -2238.980          47.900  
R10  19341031.940   103098575.074 8       873.398          49.300                                                                                                                                  
R20  20829710.760   111385802.234 6     -2355.050          36.700    20829716.040    86633398.612 7     -1831.702          46.450    20829715.120    86633399.858 7     -1831.703          46.650  
R21  21027174.440   112520665.921 8       691.042          49.750    21027177.280    87516117.942 7       537.480          47.450    21027177.280    87516096.192 7       537.480          46.650  
E01  27705408.400   145592911.694 7      2651.350          43.350                                                                    27705414.720   108722012.860 7      1979.907          42.750  
E13  23630376.220   124178466.941 8     -1285.353          50.950    23630378.920    95149734.018 6      -985.091          39.550    23630380.980    92730669.528 8      -959.946          50.850  
E15  26937326.680   141556586.281 7     -2513.248          44.950    26937333.220   108465477.112 5     -1925.467          31.150    26937335.100   105707793.000 7     -1876.713          42.500  
E21  23972434.080   125976003.948 8      1371.708          50.550    23972437.540    96527063.165 6      1051.001          39.650    23972439.440    94072998.891 8      1024.242          50.700  
E26  24051583.000   126391946.235 8      1127.583          49.500    24051588.200    96845785.212 6       863.974          37.950    24051590.080    94383603.198 8       842.012          48.950  
E27  24045781.400   126361381.233 8     -1159.087          50.850    24045785.780    96822362.087 6      -888.185          39.200    24045787.860    94360758.070 8      -865.562          50.550  
C01  37373465.140   194613433.852 7         6.965          47.300                                                                  
C02  37116645.180   193276101.775 7        24.053          42.900                                                                  
C03  36383647.240   189459189.024 7        37.138          47.300    36383645.280   146501869.533 5        28.761          35.050  
C04  38344228.260   199668451.480 7         9.327          43.500                                                                  
C05  39259243.920   204433167.969 6        25.034          40.700                                                                  
C07  36037532.500   187656878.871 7       506.547          47.250    36037528.700   145108180.034 6       391.671          36.000  
C08  36444320.760   189775137.107 7       423.670          46.800    36444317.580   146746149.288 5       327.595          35.850  
C09  39526581.920   205825275.293 6     -1475.800          41.350                                                                  
C10  36601641.040   190594344.248 7       680.645          45.050    36601640.260   147379608.719 5       526.389          34.400  
C11  22743265.560   118430140.605 7     -1294.087          47.750    22743265.380    91577697.818 6     -1000.681          37.650  
C13  36902727.320   192162178.987 7       771.455          47.500    36902732.480   148592006.941 5       596.517          32.850  
C14  25253953.840   131503965.191 6      2171.888          41.900    25253954.680   101687207.057 4      1679.284          28.550  
C23  23219224.260   120908603.452 8      1536.307          49.600                                                                  
C24  25665869.260   133648904.151 7     -3223.150          47.100                                                                  
C25  22261264.380   115920228.145 8     -1417.964          50.350                                                                  
C28  24874817.000   129529697.558 7      1407.291          46.050                                                                  
> 2021 06 10 03 35 58.0000000  0 38                     
G01  21019248.720   110456887.583 8     -2581.137          48.950    21019252.160    86070308.880 8     -2011.273          49.300    21019252.240    86070312.632 8     -2011.273          48.700    21019251.700    82484054.216 8     -1927.567          51.650  
G03  22180090.840   116557174.828 8      1469.718          48.600    22180095.640    90823798.417 8      1145.238          48.800    22180096.520    90823802.168 7      1145.237          47.050    22180096.580    87039496.045 8      1097.447          49.900  
G06  23980075.800   126016162.095 7      3155.321          43.350    23980082.800    98194419.739 7      2458.695          43.700    23980083.720    98194419.497 7      2458.695          42.950    23980083.860    94102985.769 7      2356.085          44.500  
G07  22041667.120   115829707.724 8     -2997.374          48.950    22041669.520    90256894.003 8     -2335.615          49.150    22041669.960    90256910.761 7     -2335.614          43.750                                                                  
G08  24989464.400   131320492.132 6     -1838.561          40.200    24989471.560   102327686.079 6     -1432.641          38.500    24989472.100   102327647.837 6     -1432.639          40.150    24989471.540    98063935.618 6     -1373.028          41.550  
G14  21248050.340   111659256.929 8      2128.793          48.800    21248051.280    87007235.332 7      1658.804          45.350    21248051.700    87007219.080 8      1658.804          49.250    21248055.400    83381937.056 8      1589.593          51.850  
G17  22331309.860   117351829.691 7       557.968          47.700    22331310.720    91443002.219 8       434.782          48.100    22331311.260    91442991.973 7       434.781          45.300                                                                  
G19  23582367.780   123926183.171 7      1609.151          43.850    23582368.500    96565861.695 6      1253.888          40.600                                                                                                                                  
G21  23752448.260   124819921.699 7     -3169.475          46.250    23752449.360    97262247.790 6     -2469.718          39.800                                                                                                                                  
G22  22704866.840   119314881.355 8      -509.663          48.100    22704866.200    92972676.710 7      -397.136          42.500                                                                                                                                  
G28  22676711.940   119166933.540 7      2507.273          47.100    22676712.180    92857353.241 6      1953.724          40.350                                                                                                                                  
G30  21341424.660   112149947.146 8     -1162.492          49.250    21341427.920    87389574.208 8      -905.838          49.650    21341428.720    87389551.957 8      -905.838          48.750    21341428.840    83748345.791 8      -868.119          52.550  
R09  20298443.120   108392512.927 8     -2879.217          51.300    20298446.680    84305289.130 8     -2239.390          49.150    20298446.720    84305297.382 8     -2239.390          48.300  
R10  19340868.200   103097702.197 8       872.703          49.350                                                                                                                                  
R20  20830151.140   111388157.269 6     -2354.877          37.250    20830156.460    86635230.308 7     -1831.569          46.850    20830155.540    86635231.553 7     -1831.570          46.850  
R21  21027045.360   112519975.166 8       690.789          49.550    21027048.200    87515580.697 7       537.284          47.600    21027048.200    87515558.943 7       537.284          46.750  
E01  27704903.860   145590260.395 7      2651.368          43.550                                                                    27704910.200   108720033.002 7      1979.863          42.650  
E13  23630620.860   124179752.538 8     -1285.549          50.900    23630623.560    95150719.078 6      -985.085          39.250    23630625.620    92731629.549 8      -960.020          50.850  
E15  26937804.940   141559099.501 7     -2513.148          44.850    26937811.460   108467402.867 5     -1926.011          30.550    26937813.360   105709669.746 7     -1876.549          42.300  
E21  23972173.100   125974632.502 8      1371.480          50.500    23972176.560    96526012.305 6      1050.860          39.600    23972178.480    94071974.753 8      1024.115          50.700  
E26  24051368.480   126390818.864 8      1127.491          49.300    24051373.680    96844921.393 6       863.680          37.850    24051375.560    94382761.334 8       841.803          48.900  
E27  24046002.000   126362540.570 8     -1159.342          50.750    24046006.400    96823250.410 6      -888.402          38.750    24046008.480    94361623.810 8      -865.812          50.550  
C01  37373463.820   194613427.041 7         6.990          47.250                                                                  
C02  37116640.580   193276077.799 7        24.098          43.050                                                                  
C03  36383640.080   189459151.764 7        37.461          47.350    36383638.140   146501840.733 5        28.817          34.900  
C04  38344226.480   199668442.169 7         9.660          43.300                                                                  
C05  39259239.120   204433143.060 6        25.129          40.700                                                                  
C07  36037435.260   187656372.493 7       506.636          47.400    36037431.460   145107788.469 5       391.601          35.750  
C08  36444239.400   189774713.478 7       423.647          46.800    36444236.240   146745821.705 5       327.619          35.750  
C09  39526865.340   205826751.097 6     -1475.516          41.000                                                                  
C10  36601510.300   190593663.523 7       680.857          45.100    36601509.540   147379082.336 5       526.469          34.300  
C11  22743514.080   118431434.732 7     -1293.979          47.950    22743513.900    91578698.521 6     -1000.655          37.400  
C13  36902579.200   192161407.680 7       771.476          47.600    36902584.360   148591410.517 5       596.358          32.800  
C14  25253536.780   131501793.445 6      2172.023          41.950    25253537.700   101685527.728 4      1679.449          27.650  
C23  23218929.260   120907067.354 8      1535.952          49.650                                                                  
C24  25666488.240   133652127.300 7     -3222.975          47.150                                                                  
C25  22261536.720   115921646.374 8     -1418.214          50.300                                                                  
C28  24874546.780   129528290.428 7      1407.313          46.450                                                                  
> 2021 06 10 03 35 59.0000000  0 39                     
G01  21019739.960   110459469.059 8     -2581.434          48.800    21019743.400    86072320.435 8     -2011.501          48.800    21019743.480    86072324.190 8     -2011.501          48.750    21019742.940    82485981.940 8     -1927.679          51.250  
G03  22179811.220   116555705.433 8      1469.483          48.400    22179816.020    90822653.449 8      1145.059          48.000    22179816.900    90822657.201 7      1145.059          47.250    22179816.960    87038398.769 8      1097.346          49.600  
G06  23979475.440   126013007.129 7      3155.016          43.200    23979482.420    98191961.336 7      2458.461          43.050    23979483.320    98191961.092 7      2458.460          43.000    23979483.480    94100629.766 7      2356.128          44.150  
G07  22042237.580   115832705.436 8     -2997.515          48.850    22042239.980    90259229.898 8     -2335.721          48.900    22042240.400    90259246.658 7     -2335.720          43.750                                                                  
G08  24989814.260   131322330.551 6     -1838.190          40.250    24989821.380   102329118.623 6     -1432.348          36.000    24989821.940   102329080.391 6     -1432.347          40.150    24989821.380    98065308.448 6     -1372.499          41.100  
G14  21247645.300   111657128.430 8      2128.572          48.700    21247646.240    87005576.776 7      1658.635          45.700    21247646.660    87005560.525 8      1658.635          49.500    21247650.360    83380347.584 8      1589.559          51.450  
G17  22331203.720   117351271.966 7       557.975          47.750    22331204.600    91442567.644 7       434.792          47.800    22331205.120    91442557.401 7       434.792          45.650                                                                  
G19  23582061.620   123924574.324 7      1609.205          43.850    23582062.360    96564608.076 6      1253.936          40.150                                                                                                                                  
G21  23753051.420   124823091.250 7     -3169.438          46.150    23753052.500    97264717.585 6     -2469.687          39.350                                                                                                                                  
G22  22704963.920   119315391.537 8      -510.065          48.100    22704963.280    92973074.269 7      -397.446          42.950                                                                                                                                  
G28  22676234.820   119164426.384 7      2507.370          47.150    22676235.080    92855399.633 6      1953.803          40.150                                                                                                                                  
G30  21341645.920   112151109.917 8     -1162.689          49.050    21341649.180    87390480.276 8      -905.987          49.300    21341649.980    87390458.026 8      -905.987          48.950    21341650.100    83749214.098 8      -868.323          52.200  
R05  24086559.140                        2236.196          32.300                                                                                                                                  
R09  20298982.400   108395392.507 8     -2879.684          51.100    20298985.940    84307528.824 8     -2239.749          49.250    20298986.000    84307537.072 8     -2239.749          48.350  
R10  19340704.580   103096830.053 8       871.957          49.300                                                                                                                                  
R20  20830591.560   111390512.356 6     -2354.941          36.700    20830596.880    86637062.054 7     -1831.615          46.850    20830595.940    86637063.299 7     -1831.616          46.950  
R21  21026916.340   112519284.741 8       690.554          49.600    21026919.180    87515043.716 7       537.104          47.500    21026919.180    87515021.964 7       537.104          46.900  
E01  27704399.320   145587609.024 7      2651.494          43.550                                                                    27704405.640   108718053.065 7      1980.161          42.300  
E13  23630865.520   124181038.264 8     -1285.600          50.850    23630868.220    95151704.232 6      -985.077          39.000    23630870.280    92732589.671 8      -960.056          50.550  
E15  26938283.160   141561612.562 7     -2512.763          44.600    26938289.680   108469328.446 5     -1925.585          30.050    26938291.580   105711546.392 6     -1876.577          41.850  
E21  23971912.160   125973261.239 8      1371.356          50.400    23971915.640    96524961.606 6      1050.742          39.200    23971917.520    94070950.761 8      1024.042          50.400  
E26  24051153.980   126389691.733 8      1127.261          49.350    24051159.180    96844057.739 6       863.715          37.400    24051161.060    94381919.643 8       841.741          48.650  
E27  24046222.680   126363700.188 8     -1159.581          50.750    24046227.060    96824138.947 6      -888.558          38.650    24046229.140    94362489.753 8      -865.940          50.150  
C01  37373462.500   194613420.115 7         7.325          47.200                                                                  
C02  37116635.960   193276053.731 7        24.337          42.900                                                                  
C03  36383632.920   189459114.433 7        37.634          47.400    36383630.880   146501811.871 5        28.923          34.600  
C04  38344224.680   199668432.796 7         9.409          43.400                                                                  
C05  39259234.320   204433118.062 6        25.216          40.850                                                                  
C07  36037338.000   187655866.066 7       506.788          47.500    36037334.200   145107396.867 5       391.834          35.650  
C08  36444158.060   189774289.943 7       423.660          46.850    36444154.900   146745494.198 5       327.603          35.500  
C09  39527148.720   205828226.728 6     -1475.226          41.000                                                                  
C10  36601379.560   190592982.671 7       681.204          45.250    36601378.800   147378555.868 5       526.651          34.000  
C11  22743762.580   118432728.802 7     -1293.636          47.900    22743762.420    91579699.190 6     -1000.423          37.100  
C13  36902431.100   192160636.463 7       771.395          47.650    36902436.260   148590814.163 5       596.443          32.450  
C14  25253119.680   131499621.511 7      2172.295          42.100    25253120.520   101683848.235 4      1679.815          27.600  
C23  23218634.340   120905531.618 8      1535.616          49.700                                                                  
C24  25667107.200   133655350.447 7     -3222.831          47.100                                                                  
C25  22261809.160   115923064.986 8     -1418.564          50.400                                                                  
C28  24874276.580   129526883.416 7      1407.132          46.500                                                                  
> 2021 06 10 03 36 00.0000000  0 39                     
G01  21020231.260   110462050.884 8     -2582.134          49.000    21020234.720    86074332.262 8     -2012.045          49.100    21020234.800    86074336.018 8     -2012.045          49.150    21020234.240    82487909.922 8     -1928.185          51.100  
G03  22179531.700   116554236.477 8      1468.674          48.450    22179536.500    90821508.824 7      1144.430          47.900    22179537.380    90821512.579 7      1144.431          47.900    22179537.420    87037301.822 8      1096.774          49.400  
G06  23978875.100   126009852.361 7      3154.626          43.350    23978882.080    98189503.089 7      2458.158          43.650    23978883.000    98189502.847 7      2458.157          43.350    23978883.140    94098273.944 7      2355.680          44.050  
G07  22042808.060   115835703.375 8     -2998.107          49.050    22042810.460    90261565.970 8     -2336.181          49.500    22042810.900    90261582.727 7     -2336.180          44.250                                                                  
G08  24990164.100   131324168.841 6     -1838.174          40.100    24990171.220   102330551.075 6     -1432.334          37.900    24990171.780   102330512.840 6     -1432.333          40.000    24990171.220    98066681.226 6     -1372.640          40.750  
G14  21247240.300   111655000.125 8      2128.246          48.700    21247241.240    87003918.372 7      1658.382          45.950    21247241.660    87003902.122 8      1658.383          49.750    21247245.360    83378758.273 8      1589.171          51.350  
G17  22331097.600   117350714.233 7       557.641          47.750    22331098.480    91442133.066 7       434.534          47.750    22331099.000    91442122.820 7       434.533          46.200                                                                  
G19  23581755.460   123922965.531 7      1608.807          44.000    23581756.240    96563354.492 6      1253.627          41.750                                                                                                                                  
G21  23753654.560   124826260.767 7     -3169.699          46.000    23753655.660    97267187.348 6     -2469.889          40.500                                                                                                                                  
G22  22705061.100   119315902.256 8      -511.007          48.350    22705060.480    92973472.246 7      -398.180          42.350                                                                                                                                  
G28  22675757.720   119161919.220 7      2507.022          47.350    22675757.980    92853446.013 6      1953.534          41.350                                                                                                                                  
G30  21341867.280   112152273.219 8     -1163.706          48.950    21341870.560    87391386.757 8      -906.777          48.850    21341871.360    87391364.508 8      -906.777          49.450    21341871.480    83750082.785 8      -868.948          52.050  
R05  24086136.380                        2235.775          30.250    24086144.620                        1738.937          27.700    24086141.240                        1738.937          27.300  
R09  20299521.760   108398272.692 8     -2880.579          51.250    20299525.300    84309768.978 8     -2240.443          49.750    20299525.360    84309777.226 8     -2240.444          48.750  
R10  19340541.120   103095958.687 8       871.018          49.200                                                                                                                                  
R20  20831031.980   111392867.573 6     -2355.541          36.950    20831037.320    86638893.903 7     -1832.081          47.150    20831036.380    86638895.147 7     -1832.082          47.250  
R21  21026787.400   112518594.725 8       689.742          49.700    21026790.240    87514507.054 7       536.476          47.850    21026790.240    87514485.301 7       536.476          47.250  
E01  27703894.760   145584957.601 7      2651.336          43.600                                                                    27703901.100   108716073.116 7      1979.932          42.200  
E13  23631110.220   124182324.182 8     -1286.046          50.900    23631112.920    95152689.546 6      -985.330          39.600    23631114.980    92733549.931 8      -960.399          50.300  
E15  26938761.360   141564125.538 7     -2512.885          44.650    26938767.880   108471253.978 5     -1925.723          30.300    26938769.800   105713422.971 6     -1876.704          41.550  
E21  23971651.260   125971890.232 8      1370.740          50.600    23971654.740    96523911.090 6      1050.417          39.750    23971656.640    94069926.945 8      1023.703          50.200  
E26  24050939.560   126388564.893 8      1126.533          49.450    24050944.740    96843194.298 6       863.430          38.050    24050946.640    94381078.160 8       841.398          48.550  
E27  24046443.400   126364860.129 8     -1160.150          50.850    24046447.780    96825027.719 6      -888.824          39.000    24046449.880    94363355.941 8      -866.361          50.050  
C01  37373461.160   194613413.179 7         6.883          47.500                                                                  
C02  37116631.320   193276029.637 7        24.072          43.200                                                                  
C03  36383625.740   189459077.079 7        37.222          47.550    36383623.660   146501782.954 5        29.034          35.050  
C04  38344222.860   199668423.376 7         9.340          43.400                                                                  
C05  39259229.520   204433093.028 6        24.981          41.100                                                                  
C07  36037240.760   187655359.655 7       506.176          47.550    36037236.940   145107005.268 6       391.502          36.100  
C08  36444076.760   189773866.564 7       423.255          46.950    36444073.600   146745166.811 5       327.316          35.950  
C09  39527432.080   205829702.229 6     -1475.271          41.300                                                                  
C10  36601248.820   190592301.809 7       680.825          45.350    36601248.040   147378029.374 5       526.383          34.500  
C11  22744011.100   118434022.914 8     -1294.214          48.050    22744010.940    91580699.859 6     -1000.605          37.700  
C13  36902283.020   192159865.351 7       771.003          47.800    36902288.180   148590217.890 5       596.050          32.950  
C14  25252702.540   131497449.442 7      2171.788          42.300    25252703.360   101682168.683 4      1679.371          28.350  
C23  23218339.500   120903996.291 8      1535.066          49.700                                                                  
C24  25667726.180   133658573.649 7     -3223.294          47.100                                                                  
C25  22262081.660   115924484.049 8     -1419.359          50.400                                                                  
C28  24874006.400   129525476.536 7      1406.670          46.300                                                                  
> 2021 06 10 03 36 01.0000000  0 39                     
G01  21020722.640   110464633.153 8     -2582.351          48.900    21020726.100    86076344.428 8     -2012.214          48.700    21020726.180    86076348.182 8     -2012.214          48.300    21020725.640    82489838.242 8     -1928.384          50.900  
G03  22179252.260   116552768.050 8      1468.275          48.500    22179257.060    90820364.605 8      1144.120          48.300    22179257.940    90820368.360 7      1144.120          46.900    22179257.980    87036205.267 8      1096.510          49.300  
G06  23978274.840   126006697.952 7      3154.417          43.500    23978281.800    98187045.117 7      2457.994          43.350    23978282.720    98187044.873 7      2457.994          42.600    23978282.880    94095918.372 7      2355.643          44.050  
G07  22043378.620   115838701.633 8     -2998.005          49.000    22043381.020    90263902.279 8     -2336.101          49.250    22043381.440    90263919.040 7     -2336.100          43.550                                                                  
G08  24990513.940   131326007.171 6     -1838.113          40.700    24990521.060   102331983.559 6     -1432.286          38.350    24990521.600   102331945.314 6     -1432.286          39.300    24990521.040    98068053.995 6     -1372.622          40.500  
G14  21246835.360   111652872.161 8      2127.985          48.800    21246836.300    87002260.227 7      1658.178          45.100    21246836.720    87002243.981 8      1658.179          49.000    21246840.420    83377169.203 8      1589.086          51.200  
G17  22330991.480   117350156.609 7       557.838          47.850    22330992.380    91441698.567 7       434.689          47.900    22330992.900    91441688.321 7       434.688          45.200                                                                  
G19  23581449.340   123921356.904 7      1608.479          44.000    23581450.120    96562101.023 6      1253.368          40.700                                                                                                                                  
G21  23754257.720   124829430.378 7     -3169.650          45.750    23754258.820    97269657.183 6     -2469.851          40.900                                                                                                                                  
G22  22705158.400   119316413.586 8      -511.459          48.250    22705157.780    92973870.690 6      -398.533          41.200                                                                                                                                  
G28  22675280.640   119159412.155 7      2507.412          47.150    22675280.900    92851492.464 6      1953.837          39.750                                                                                                                                  
G30  21342088.780   112153437.138 8     -1164.054          48.900    21342092.040    87392293.714 8      -907.049          49.200    21342092.860    87392271.466 8      -907.049          48.650    21342092.960    83750951.942 8      -869.257          51.900  
R05  24085724.120                        2235.326          30.200    24085728.140                        1738.587          26.900    24085726.600                        1738.587          26.850  
R09  20300061.260   108401153.597 8     -2881.124          51.200    20300064.820    84312009.686 8     -2240.868          49.150    20300064.880    84312017.932 7     -2240.868          47.900  
R10  19340377.820   103095088.241 8       870.174          49.100                                                                                                                                  
R20  20831472.480   111395223.001 6     -2355.676          36.700    20831477.780    86640725.907 7     -1832.187          46.400    20831476.840    86640727.149 7     -1832.188          46.650  
R21  21026658.560   112517905.268 8       689.317          49.900    21026661.400    87513970.818 7       536.144          47.150    21026661.400    87513949.065 7       536.144          46.350  
E01  27703390.220   145582306.255 7      2651.440          43.700                                                                    27703396.560   108714093.218 7      1979.905          42.100  
E13  23631354.980   124183610.412 8     -1286.256          51.000    23631357.680    95153675.101 6      -985.579          38.950    23631359.740    92734510.423 8      -960.479          50.200  
E15  26939239.560   141566638.528 7     -2512.730          44.850    26939246.100   108473179.47115     -1925.130          30.050    26939248.000   105715299.541 6     -1876.470          41.000  
E21  23971390.440   125970519.572 8      1370.677          50.550    23971393.920    96522860.855 6      1050.136          39.300    23971395.800    94068903.410 8      1023.578          50.050  
E26  24050725.200   126387438.450 8      1126.339          49.550    24050730.400    96842331.187 6       863.019          37.400    24050732.280    94380236.981 8       841.229          48.300  
E27  24046664.220   126366020.515 8     -1160.410          50.800    24046668.600    96825916.843 6      -889.113          38.850    24046670.700    94364222.461 8      -866.575          49.900  
C01  37373459.840   194613406.308 7         7.001          47.400                                                                  
C02  37116626.700   193276005.631 7        23.984          43.200                                                                  
C03  36383618.580   189459039.787 7        37.505          47.550    36383616.500   146501754.123 5        28.966          34.800  
C04  38344221.080   199668414.026 7         9.483          43.400                                                                  
C05  39259224.720   204433068.031 6        25.444          41.100                                                                  
C07  36037143.520   187654853.322 7       506.456          47.550    36037139.720   145106613.749 5       391.606          35.550  
C08  36443995.500   189773443.448 7       423.068          47.000    36443992.340   146744839.631 5       327.233          35.450  
C09  39527715.440   205831177.723 6     -1475.234          41.700                                                                  
C10  36601118.080   190591621.011 7       680.844          45.400    36601117.280   147377502.936 5       526.502          33.800  
C11  22744259.640   118435317.129 8     -1294.133          48.250    22744259.480    91581700.638 6     -1000.648          37.100  
C13  36902134.980   192159094.502 7       770.802          47.800    36902140.160   148589621.815 5       596.142          32.500  
C14  25252285.420   131495277.308 7      2172.276          42.350    25252286.240   101680489.013 4      1680.042          27.800  
C23  23218044.760   120902461.515 8      1534.730          49.700                                                                  
C24  25668345.200   133661797.002 7     -3223.136          47.150                                                                  
C25  22262354.260   115925903.653 8     -1419.718          50.650                                                                  
C28  24873736.280   129524069.921 7      1406.607          46.150                                                                  
> 2021 06 10 03 36 02.0000000  0 39                     
G01  21021214.100   110467215.819 8     -2582.919          48.850    21021217.560    86078356.897 8     -2012.659          48.450    21021217.640    86078360.653 7     -2012.658          47.950    21021217.100    82491766.852 8     -1928.792          51.800  
G03  22178972.920   116551300.077 8      1467.591          48.450    22178977.720    90819220.734 8      1143.584          48.450    22178978.600    90819224.489 7      1143.585          46.350    22178978.640    87035109.057 8      1096.005          50.050  
G06  23977674.620   126003543.806 7      3154.039          43.500    23977681.600    98184587.339 7      2457.696          43.900    23977682.500    98184587.097 7      2457.696          42.300    23977682.660    94093563.011 7      2355.163          44.700  
G07  22043949.220   115841700.159 8     -2998.807          48.850    22043951.620    90266238.796 8     -2336.728          48.900    22043952.060    90266255.554 7     -2336.728          43.200                                                                  
G08  24990863.740   131327845.414 6     -1837.989          40.950    24990870.880   102333415.956 5     -1432.192          35.950    24990871.400   102333377.714 6     -1432.192          38.950    24990870.840    98069426.719 6     -1372.818          41.250  
G14  21246430.460   111650744.437 8      2127.516          48.700    21246431.420    87000602.262 7      1657.811          44.700    21246431.840    87000586.015 8      1657.812          48.750    21246435.540    83375580.322 8      1588.722          52.050  
G17  22330885.380   117349599.015 7       557.605          47.550    22330886.280    91441264.085 7       434.506          47.300    22330886.800    91441253.839 7       434.506          44.950                                                                  
G19  23581143.240   123919748.364 7      1608.328          44.000    23581144.020    96560847.609 6      1253.247          40.550                                                                                                                                  
G21  23754860.880   124832599.987 7     -3169.558          45.900    23754861.960    97272127.013 6     -2469.780          39.300                                                                                                                                  
G22  22705255.820   119316925.479 8      -512.298          48.050    22705255.180    92974269.565 6      -399.189          41.700                                                                                                                                  
G28  22674803.540   119156905.117 7      2506.933          47.050    22674803.820    92849538.932 6      1953.462          40.650                                                                                                                                  
G30  21342310.360   112154601.607 8     -1164.707          48.900    21342313.640    87393201.092 8      -907.560          49.100    21342314.460    87393178.842 8      -907.560          48.300    21342314.560    83751821.511 8      -869.792          52.700  
R05  24085301.200                        2235.730          30.000    24085305.880                        1738.901          25.150    24085308.980                        1738.901          26.250  
R09  20300600.900   108404035.130 8     -2881.958          51.050    20300604.440    84314250.879 8     -2241.519          48.900    20300604.500    84314259.124 7     -2241.520          47.700  
R10  19340214.660   103094218.608 8       869.293          49.050                                                                                                                                  
R20  20831912.980   111397578.542 6     -2355.290          36.400    20831918.280    86642557.996 7     -1831.889          46.000    20831917.340    86642559.236 7     -1831.890          46.250  
R21  21026529.820   112517216.284 8       688.674          49.550    21026532.640    87513434.944 7       535.642          46.750    21026532.660    87513413.192 7       535.642          46.100  
E01  27702885.680   145579654.916 7      2651.154          43.600                                                                    27702892.020   108712113.308 7      1980.030          42.900  
E13  23631599.780   124184896.858 8     -1286.591          50.800    23631602.480    95154660.823 6      -985.874          40.150    23631604.540    92735471.079 8      -960.798          51.000  
E15  26939717.760   141569151.480 7     -2512.754          44.600    26939724.280   108475105.004 5     -1925.646          30.900    26939726.200   105717176.090 6     -1876.568          41.900  
E21  23971129.660   125969149.206 8      1370.280          50.400    23971133.160    96521810.827 6      1049.848          40.350    23971135.020    94067880.084 8      1023.214          50.850  
E26  24050510.900   126386312.309 8      1126.015          49.350    24050516.100    96841468.306 6       862.688          38.650    24050518.000    94379396.045 8       840.778          49.150  
E27  24046885.100   126367181.260 8     -1160.897          50.850    24046889.480    96826806.260 6      -889.591          40.000    24046891.580    94365089.251 8      -866.945          50.650  
C01  37373458.520   194613399.442 7         6.820          47.200                                                                  
C02  37116622.100   193275981.602 7        24.010          42.900                                                                  
C03  36383611.420   189459002.508 7        37.199          47.300    36383609.380   146501725.295 5        28.834          35.650  
C04  38344219.280   199668404.690 7         9.253          43.200                                                                  
C05  39259219.940   204433043.106 6        24.491          40.900                                                                  
C07  36037046.300   187654347.058 7       506.134          47.350    36037042.500   145106222.274 6       391.321          36.850  
C08  36443914.280   189773020.522 7       422.762          46.900    36443911.120   146744512.593 6       326.924          36.550  
C09  39527998.780   205832653.151 6     -1475.684          41.350                                                                  
C10  36600987.340   190590940.195 7       680.787          45.250    36600986.540   147376976.488 5       526.446          35.000  
C11  22744508.200   118436611.394 8     -1294.260          48.050    22744508.020    91582701.450 6     -1000.880          38.200  
C13  36901986.980   192158323.806 7       770.574          47.600    36901992.160   148589025.862 5       595.947          33.750  
C14  25251868.240   131493105.086 7      2172.079          42.200    25251869.060   101678809.325 4      1679.779          28.850  
C23  23217750.100   120900927.198 8      1533.999          49.550                                                                  
C24  25668964.240   133665020.438 7     -3223.505          46.900                                                                  
C25  22262626.980   115927323.746 8     -1420.359          50.400                                                                  
C28  24873466.180   129522663.492 7      1406.433          46.000                                                                  
> 2021 06 10 03 36 03.0000000  0 39                     
G01  21021705.640   110469798.892 8     -2583.311          48.800    21021709.100    86080369.669 8     -2012.970          48.950    21021709.180    86080373.425 8     -2012.969          48.300    21021708.640    82493695.765 8     -1929.034          51.900  
G03  22178693.680   116549832.587 8      1467.170          48.600    22178698.460    90818077.227 8      1143.252          48.350    22178699.340    90818080.980 7      1143.253          46.750    22178699.360    87034013.204 8      1095.679          50.150  
G06  23977074.480   126000389.963 7      3153.685          43.700    23977081.420    98182129.784 7      2457.415          43.700    23977082.340    98182129.540 7      2457.415          42.650    23977082.520    94091207.854 7      2355.062          44.850  
G07  22044519.860   115844698.945 8     -2998.768          48.950    22044522.280    90268575.500 8     -2336.701          49.000    22044522.700    90268592.260 7     -2336.702          43.500                                                                  
G08  24991213.560   131329683.638 6     -1838.167          41.350    24991220.700   102334848.316 5     -1432.339          35.650    24991221.200   102334810.086 6     -1432.337          39.350    24991220.640    98070799.413 6     -1372.706          41.800  
G14  21246025.640   111648616.988 8      2127.378          48.450    21246026.560    86998944.500 7      1657.697          45.050    21246027.000    86998928.253 8      1657.698          48.750    21246030.700    83373991.645 8      1588.580          52.150  
G17  22330779.280   117349041.495 7       557.501          47.350    22330780.200    91440829.644 7       434.420          47.400    22330780.700    91440819.400 7       434.421          44.950                                                                  
G19  23580837.160   123918139.948 7      1608.283          43.900    23580837.940    96559594.287 6      1253.208          40.150                                                                                                                                  
G21  23755464.040   124835769.659 7     -3169.620          45.950    23755465.140    97274596.872 6     -2469.835          39.650                                                                                                                                  
G22  22705353.340   119317437.961 8      -512.703          48.050    22705352.700    92974668.891 6      -399.510          41.900                                                                                                                                  
G28  22674326.480   119154398.150 7      2506.913          46.900    22674326.740    92847585.441 6      1953.442          40.000                                                                                                                                  
G30  21342532.060   112155766.656 8     -1165.174          48.950    21342535.340    87394108.910 8      -907.929          49.000    21342536.160    87394086.658 8      -907.930          48.550    21342536.260    83752691.513 8      -870.173          52.800  
R05  24084882.380   128747530.56914      2234.956          29.550    24084887.720                        1738.300          28.350    24084889.980                        1738.300          25.950  
R09  20301140.640   108406917.349 8     -2882.620          50.850    20301144.160    84316492.592 8     -2242.037          48.900    20301144.240    84316500.842 7     -2242.038          47.850  
R10  19340051.680   103093349.849 8       868.354          48.850                                                                                                                                  
R20  20832353.540   111399934.321 6     -2355.712          36.600    20832358.820    86644390.254 7     -1832.222          46.200    20832357.860    86644391.496 7     -1832.222          46.300  
R21  21026401.160   112516527.772 8       688.368          49.450    21026404.000    87512899.424 7       535.399          46.900    21026403.980    87512877.672 7       535.398          46.100  
E01  27702381.160   145577003.598 7      2651.342          43.750                                                                    27702387.500   108710133.444 7      1979.825          42.900  
E13  23631844.640   124186183.561 8     -1286.842          50.750    23631847.340    95155646.735 6      -986.014          40.250    23631849.400    92736431.933 8      -960.945          51.150  
E15  26940195.960   141571664.417 7     -2512.873          44.500    26940202.460   108477030.46715     -1925.198          30.900    26940204.400   105719052.632 6     -1876.590          41.950  
E21  23970868.960   125967779.152 8      1369.972          50.400    23970872.440    96520761.045 6      1049.715          40.600    23970874.320    94066856.994 8      1023.002          50.950  
E26  24050296.680   126385186.546 8      1125.566          49.500    24050301.860    96840605.703 6       862.612          38.900    24050303.760    94378555.373 8       840.578          49.300  
E27  24047106.060   126368342.413 8     -1161.443          50.850    24047110.440    96827695.960 6      -889.851          40.050    24047112.540    94365956.334 8      -867.165          50.850  
C01  37373457.220   194613392.603 7         6.808          47.150                                                                  
C02  37116617.480   193275957.615 7        23.994          43.000                                                                  
C03  36383604.260   189458965.242 7        37.393          47.250    36383602.220   146501696.503 5        28.706          35.950  
C04  38344217.480   199668395.350 7         9.509          43.200                                                                  
C05  39259215.140   204433018.148 6        25.104          40.700                                                                  
C07  36036949.100   187653840.845 7       506.071          47.400    36036945.280   145105830.831 6       391.438          37.000  
C08  36443833.100   189772597.796 7       422.684          46.800    36443829.960   146744185.723 6       326.832          36.900  
C09  39528282.080   205834128.457 6     -1475.190          41.150                                                                  
C10  36600856.600   190590259.434 7       680.635          45.100    36600855.800   147376450.066 5       526.488          35.300  
C11  22744756.760   118437905.727 8     -1294.256          48.050    22744756.580    91583702.302 6     -1000.824          38.500  
C13  36901839.000   192157553.288 7       770.480          47.500    36901844.200   148588430.062 5       595.773          34.000  
C14  25251451.080   131490932.762 7      2172.138          42.100    25251451.840   101677129.554 4      1679.707          29.700  
C23  23217455.540   120899393.357 8      1533.506          49.500                                                                  
C24  25669583.280   133668243.975 7     -3223.495          46.850                                                                  
C25  22262899.780   115928744.334 8     -1420.802          50.550                                                                  
C28  24873196.140   129521257.291 7      1406.203          45.700                                                                  
> 2021 06 10 03 36 04.0000000  0 39                     
G01  21022197.240   110472382.365 8     -2583.736          48.750    21022200.720    86082382.756 8     -2013.301          48.450    21022200.800    86082386.513 8     -2013.301          48.250    21022200.260    82495624.985 8     -1929.438          52.150  
G03  22178414.520   116548365.581 8      1466.868          48.650    22178419.300    90816934.099 8      1143.017          48.850    22178420.160    90816937.854 7      1143.017          47.050    22178420.200    87032917.721 8      1095.313          50.400  
G06  23976474.380   125997236.392 7      3153.556          43.950    23976481.320    98179672.446 7      2457.314          44.250    23976482.240    98179672.202 7      2457.314          42.950    23976482.400    94088852.923 7      2354.790          45.300  
G07  22045090.560   115847698.025 8     -2999.178          48.950    22045092.980    90270912.442 8     -2337.021          48.650    22045093.400    90270929.200 7     -2337.021          43.700                                                                  
G08  24991563.380   131331521.826 6     -1837.849          41.800    24991570.460   102336280.656 5     -1432.093          35.900    24991570.980   102336242.432 6     -1432.088          39.200    24991570.440    98072172.094 7     -1372.635          42.050  
G14  21245620.840   111646489.818 8      2127.172          48.600    21245621.760    86997286.956 7      1657.538          45.700    21245622.200    86997270.712 8      1657.539          49.000    21245625.900    83372403.172 8      1588.393          52.400  
G17  22330673.200   117348484.036 7       557.443          47.300    22330674.120    91440395.256 7       434.374          47.500    22330674.640    91440385.010 7       434.374          45.400                                                                  
G19  23580531.120   123916531.649 7      1608.513          43.900    23580531.880    96558341.059 6      1253.388          39.850                                                                                                                                  
G21  23756067.220   124838939.325 7     -3169.600          46.300    23756068.300    97277066.730 6     -2469.818          38.850                                                                                                                                  
G22  22705450.960   119317951.023 8      -513.302          48.050    22705450.320    92975068.674 7      -399.975          42.900                                                                                                                                  
G28  22673849.400   119151891.227 7      2506.855          46.800    22673849.680    92845631.993 6      1953.397          40.150                                                                                                                                  
G30  21342753.860   112156932.291 8     -1166.067          48.900    21342757.140    87395017.187 8      -908.626          48.950    21342757.960    87394994.935 8      -908.626          48.550    21342758.080    83753561.945 8      -870.658          53.100  
R05  24084466.680   128745295.657 4      2234.872          29.850                                                                    24084472.200                        1738.234          25.700  
R09  20301680.520   108409800.243 8     -2883.294          50.900    20301684.040    84318734.835 8     -2242.563          48.700    20301684.120    84318743.083 7     -2242.563          47.550  
R10  19339888.860   103092481.945 8       867.503          48.850                                                                                                                                  
R20  20832794.140   111402290.276 6     -2356.110          36.700    20832799.400    86646222.655 7     -1832.531          46.050    20832798.420    86646223.897 7     -1832.531          46.150  
R21  21026272.580   112515839.709 8       687.860          49.600    21026275.400    87512364.258 7       535.004          46.700    21026275.400    87512342.505 7       535.004          46.150  
E01  27701876.620   145574352.299 7      2651.264          43.750                                                                    27701882.980   108708153.579 7      1979.857          43.300  
E13  23632089.540   124187470.519 8     -1287.040          50.700    23632092.240    95156632.849 6      -986.195          40.400    23632094.300    92737392.973 8      -961.162          51.450  
E15  26940674.160   141574177.336 7     -2512.940          44.500    26940680.660   108478955.940 5     -1925.413          31.200    26940682.600   105720929.147 6     -1876.466          41.950  
E21  23970608.300   125966409.417 8      1369.592          50.450    23970611.800    96519711.500 6      1049.397          40.850    23970613.660    94065834.132 8      1022.748          51.250  
E26  24050082.520   126384061.112 8      1125.249          49.350    24050087.700    96839743.369 6       862.115          39.000    24050089.600    94377714.953 8       840.276          49.400  
E27  24047327.080   126369503.933 8     -1161.609          50.950    24047331.460    96828585.960 6      -890.199          40.100    24047333.580    94366823.709 8      -867.491          51.050  
C01  37373455.900   194613385.802 7         6.743          47.200                                                                  
C02  37116612.880   193275933.620 7        24.227          43.050                                                                  
C03  36383597.120   189458928.026 7        37.267          47.200    36383595.120   146501667.709 5        28.703          35.950  
C04  38344215.700   199668386.095 7         9.313          43.400                                                                  
C05  39259210.380   204432993.247 6        24.938          40.750                                                                  
C07  36036851.900   187653334.704 7       506.058          47.350    36036848.080   145105439.455 6       391.305          36.950  
C08  36443751.960   189772175.263 7       422.296          46.750    36443748.820   146743859.002 6       326.680          36.900  
C09  39528565.400   205835603.719 6     -1475.346          41.550                                                                  
C10  36600725.860   190589578.663 7       680.582          45.250    36600725.080   147375923.652 5       526.399          35.500  
C11  22745005.340   118439200.125 8     -1294.419          48.100    22745005.160    91584703.209 6     -1000.837          38.400  
C13  36901691.080   192156782.936 7       770.217          47.600    36901696.260   148587834.365 5       595.615          33.950  
C14  25251033.880   131488760.362 7      2172.360          42.200    25251034.640   101675449.707 4      1680.264          29.700  
C23  23217161.080   120897860.000 8      1533.071          49.550                                                                  
C24  25670202.340   133671467.633 7     -3223.460          46.850                                                                  
C25  22263172.680   115930165.435 8     -1421.356          50.450                                                                  
C28  24872926.120   129519851.310 7      1405.928          45.850                                                                  
> 2021 06 10 03 36 05.0000000  0 39                     
G01  21022688.940   110474966.247 8     -2583.940          48.900    21022692.420    86084396.161 8     -2013.466          49.050    21022692.500    86084399.913 8     -2013.465          48.250    21022691.960    82497554.510 8     -1929.646          52.350  
G03  22178135.460   116546899.076 8      1466.299          48.800    22178140.220    90815791.363 8      1142.569          48.400    22178141.080    90815795.115 7      1142.569          46.850    22178141.120    87031822.602 8      1094.975          50.650  
G06  23975874.340   125994083.121 7      3153.283          43.900    23975881.260    98177215.340 7      2457.097          43.300    23975882.180    98177215.100 7      2457.098          42.850    23975882.360    94086498.204 7      2354.692          45.550  
G07  22045661.320   115850697.392 8     -2999.431          49.050    22045663.740    90273249.601 8     -2337.222          49.000    22045664.160    90273266.356 7     -2337.223          43.700                                                                  
G08  24991913.200   131333360.030 7     -1838.196          42.100    24991920.240   102337713.006 6     -1432.367          37.350    24991920.780   102337674.790 6     -1432.363          39.500    24991920.260    98073544.774 7     -1372.672          42.850  
G14  21245216.100   111644362.932 8      2126.921          48.600    21245217.020    86995629.632 7      1657.337          45.400    21245217.460    86995613.388 8      1657.338          49.100    21245221.180    83370814.915 8      1588.203          52.700  
G17  22330567.140   117347926.650 7       557.384          47.700    22330568.060    91439960.917 7       434.324          47.450    22330568.560    91439950.671 7       434.324          45.300                                                                  
G19  23580225.080   123914923.488 7      1608.170          43.950    23580225.840    96557087.938 6      1253.115          39.600                                                                                                                                  
G21  23756670.400   124842109.074 7     -3169.671          45.950    23756671.460    97279536.658 6     -2469.879          40.700                                                                                                                                  
G22  22705548.700   119318464.706 8      -514.028          48.250    22705548.060    92975468.938 7      -400.546          42.050                                                                                                                                  
G28  22673372.360   119149384.373 7      2506.827          46.900    22673372.620    92843678.592 6      1953.371          40.550                                                                                                                                  
G30  21342975.780   112158098.491 8     -1166.470          49.100    21342979.060    87395925.898 8      -908.943          49.050    21342979.880    87395903.646 8      -908.944          48.700    21342980.000    83754432.809 8      -871.076          53.400  
R05  24084047.520   128743060.949 5      2234.725          31.150    24084052.400                        1738.119          26.900    24084054.060                        1738.124          25.650  
R09  20302220.540   108412683.815 8     -2883.955          51.100    20302224.040    84320977.599 8     -2243.081          48.400    20302224.140    84320985.851 7     -2243.081          47.200  
R10  19339726.200   103091614.929 8       866.670          48.950                                                                                                                                  
R20  20833234.740   111404646.376 6     -2356.155          36.750    20833239.980    86648055.160 7     -1832.571          45.800    20833239.020    86648056.407 7     -1832.571          45.900  
R21  21026144.100   112515152.133 8       687.408          49.850    21026146.900    87511829.468 7       534.647          46.400    21026146.900    87511807.712 7       534.646          45.850  
E01  27701372.100   145571701.044 7      2651.391          44.300                                                                    27701378.460   108706173.756 7      1979.815          43.750  
E13  23632334.480   124188757.748 8     -1287.373          50.950    23632337.200    95157619.164 6      -986.296          40.550    23632339.240    92738354.213 8      -961.316          51.700  
E15  26941152.360   141576690.226 7     -2512.672          44.700    26941158.860   108480881.397 5     -1925.268          31.200    26941160.780   105722805.665 7     -1876.499          42.300  
E21  23970347.720   125965040.002 8      1369.255          50.650    23970351.220    96518662.212 6      1049.189          40.800    23970353.060    94064811.515 8      1022.553          51.600  
E26  24049868.420   126382936.051 8      1124.956          49.700    24049873.600    96838881.305 6       861.975          38.900    24049875.520    94376874.806 8       840.068          49.800  
E27  24047548.200   126370665.874 8     -1162.094          51.050    24047552.560    96829476.276 6      -890.408          40.350    24047554.700    94367691.394 8      -867.801          51.400  
C01  37373454.600   194613379.025 7         6.822          47.200                                                                  
C02  37116608.280   193275909.674 7        24.259          43.100                                                                  
C03  36383589.980   189458890.843 7        37.176          47.300    36383587.960   146501638.963 6        28.673          36.100  
C04  38344213.920   199668376.839 7         9.297          43.500                                                                  
C05  39259205.600   204432968.369 6        24.934          40.750                                                                  
C07  36036754.720   187652828.642 7       506.103          47.500    36036750.880   145105048.126 6       391.353          37.200  
C08  36443670.860   189771752.962 7       422.344          46.950    36443667.720   146743532.458 6       326.581          37.050  
C09  39528848.680   205837078.928 6     -1475.009          41.200                                                                  
C10  36600595.120   190588897.917 7       680.719          45.450    36600594.340   147375397.259 5       526.465          35.500  
C11  22745253.920   118440494.606 8     -1294.447          48.200    22745253.740    91585704.200 6     -1001.109          38.750  
C13  36901543.160   192156012.782 7       770.104          47.650    36901548.340   148587238.839 5       595.487          34.200  
C14  25250616.680   131486587.882 7      2172.401          42.250    25250617.460   101673769.798 4      1680.010          29.700  
C23  23216866.700   120896327.131 8      1532.712          49.800                                                                  
C24  25670821.440   133674691.412 7     -3223.706          46.850                                                                  
C25  22263445.680   115931587.041 8     -1421.804          50.600                                                                  
C28  24872656.180   129518445.565 7      1405.752          46.050                                                                  
> 2021 06 10 03 36 06.0000000  0 39                     
G01  21023180.720   110477550.600 8     -2584.631          48.900    21023184.200    86086409.920 8     -2014.004          49.000    21023184.280    86086413.674 8     -2014.006          48.650    21023183.740    82499484.376 8     -1930.103          52.650  
G03  22177856.500   116545433.090 8      1465.786          48.850    22177861.240    90814649.019 8      1142.167          48.900    22177862.100    90814652.771 7      1142.167          47.250    22177862.140    87030727.877 8      1094.529          50.800  
G06  23975274.380   125990930.195 7      3152.782          44.050    23975281.280    98174758.495 7      2456.707          44.400    23975282.200    98174758.253 7      2456.707          43.200    23975282.380    94084143.747 7      2354.283          45.800  
G07  22046232.160   115853697.087 8     -2999.865          49.100    22046234.560    90275587.007 8     -2337.563          49.550    22046234.980    90275603.765 7     -2337.563          43.850                                                                  
G08  24992263.000   131335198.217 7     -1838.238          42.100    24992270.040   102339145.345 5     -1432.396          35.900    24992270.580   102339107.128 6     -1432.396          40.600    24992270.060    98074917.453 7     -1372.800          43.700  
G14  21244811.440   111642236.366 8      2126.421          48.550    21244812.360    86993972.550 7      1656.946          45.550    21244812.800    86993956.303 8      1656.946          49.300    21244816.500    83369226.893 8      1587.819          52.850  
G17  22330461.100   117347369.369 8       557.276          48.050    22330462.020    91439526.656 8       434.236          48.050    22330462.520    91439516.410 7       434.236          45.900                                                                  
G19  23579919.100   123913315.465 7      1607.972          44.200    23579919.820    96555834.913 6      1252.959          38.800                                                                                                                                  
G21  23757273.580   124845278.879 7     -3169.960          46.000    23757274.640    97282006.612 6     -2470.105          39.250                                                                                                                                  
G22  22705646.580   119318978.992 8      -514.661          48.300    22705645.920    92975869.662 7      -401.039          42.550                                                                                                                                  
G28  22672895.340   119146877.616 7      2506.679          46.900    22672895.600    92841725.246 6      1953.250          41.050                                                                                                                                  
G30  21343197.840   112159265.319 8     -1167.286          49.200    21343201.100    87396835.094 8      -909.582          49.850    21343201.920    87396812.840 8      -909.582          49.000    21343202.040    83755304.134 8      -871.619          53.550  
R05  24083629.620   128740826.467 5      2234.595          31.000                                                                    24083636.800                        1738.028          25.900  
R09  20302760.680   108415568.104 8     -2884.647          51.350    20302764.180    84323220.907 8     -2243.624          49.350    20302764.280    84323229.161 8     -2243.623          48.200  
R10  19339563.720   103090748.819 8       865.711          49.100                                                                                                                                  
R20  20833675.380   111407002.705 6     -2356.430          37.000    20833680.620    86649887.844 7     -1832.786          46.750    20833679.640    86649889.089 7     -1832.786          46.800  
R21  21026015.700   112514465.103 8       686.757          49.950    21026018.520    87511295.095 7       534.140          47.400    21026018.520    87511273.338 7       534.140          46.750  
E01  27700867.600   145569049.863 7      2651.230          44.300                                                                    27700873.960   108704193.980 7      1979.649          43.800  
E13  23632579.480   124190045.263 8     -1287.710          50.900    23632582.200    95158605.711 6      -986.747          41.250    23632584.240    92739315.670 8      -961.616          51.850  
E15  26941630.560   141579203.147 7     -2513.008          44.500    26941637.040   108482806.906 5     -1925.358          32.000    26941638.960   105724682.179 7     -1876.641          42.550  
E21  23970087.200   125963670.931 8      1368.842          50.750    23970090.700    96517613.188 6      1048.766          41.350    23970092.540    94063789.159 8      1022.194          51.700  
E26  24049654.400   126381811.376 8      1124.401          49.700    24049659.580    96838019.543 6       861.559          39.450    24049661.500    94376034.955 8       839.589          49.950  
E27  24047769.400   126371828.238 8     -1162.659          51.100    24047773.760    96830366.923 6      -890.897          40.950    24047775.900    94368559.391 8      -868.243          51.550  
C01  37373453.320   194613372.312 7         6.629          47.200                                                                  
C02  37116603.720   193275885.843 7        23.646          43.000                                                                  
C03  36383582.840   189458853.726 7        36.944          47.400    36383580.840   146501610.243 6        28.572          36.750  
C04  38344212.160   199668367.663 7         9.117          43.650                                                                  
C05  39259200.820   204432943.554 6        24.844          40.800                                                                  
C07  36036657.560   187652322.694 7       505.812          47.400    36036653.720   145104656.907 6       391.102          37.700  
C08  36443589.820   189771330.921 7       421.890          46.900    36443586.660   146743206.101 6       326.187          37.500  
C09  39529131.980   205838554.104 6     -1475.196          41.300    39529131.340                       -1140.680          29.650  
C10  36600464.400   190588217.227 7       680.658          45.400    36600463.620   147374870.904 6       526.316          36.250  
C11  22745502.540   118441789.197 8     -1294.618          48.100    22745502.360    91586705.262 6     -1001.195          39.250  
C13  36901395.320   192155242.877 7       769.697          47.700    36901400.500   148586643.505 5       595.153          34.700  
C14  25250199.480   131484415.334 7      2172.653          42.200    25250200.240   101672089.868 5      1679.975          30.250  
C23  23216572.420   120894794.792 8      1532.021          49.800                                                                  
C24  25671440.560   133677915.340 7     -3223.982          46.900                                                                  
C25  22263718.780   115933009.183 8     -1422.353          50.550                                                                  
C28  24872386.260   129517040.081 7      1405.180          46.000                                                                  
> 2021 06 10 03 36 07.0000000  0 39                     
G01  21023672.560   110480135.332 8     -2584.897          48.900    21023676.060    86088424.004 8     -2014.207          48.450    21023676.140    86088427.759 8     -2014.208          48.050    21023675.600    82501414.534 8     -1930.330          52.100  
G03  22177577.620   116543967.578 8      1465.477          48.800    22177582.380    90813507.075 8      1141.931          48.750    22177583.240    90813510.829 7      1141.931          46.750    22177583.260    87029633.504 8      1094.235          50.300  
G06  23974674.460   125987777.557 7      3152.602          43.900    23974681.340    98172301.900 7      2456.570          43.950    23974682.260    98172301.661 7      2456.571          42.800    23974682.460    94081789.495 7      2354.188          45.300  
G07  22046803.020   115856697.042 8     -2999.927          49.000    22046805.440    90277924.645 8     -2337.607          49.150    22046805.860    90277941.400 7     -2337.607          43.400                                                                  
G08  24992612.800   131337036.374 7     -1837.899          42.000    24992619.860   102340577.706 5     -1432.125          35.050    24992620.380   102340539.476 6     -1432.127          40.350    24992619.860    98076290.104 7     -1372.642          43.350  
G14  21244406.800   111640110.058 8      2126.340          48.300    21244407.720    86992315.696 7      1656.888          45.650    21244408.180    86992299.452 8      1656.889          48.750    21244411.880    83367639.065 8      1587.722          52.300  
G17  22330355.060   117346812.154 7       557.168          47.700    22330356.000    91439092.472 7       434.156          47.600    22330356.500    91439082.229 7       434.156          45.300                                                                  
G19  23579613.120   123911707.579 7      1607.760          44.100    23579613.840    96554582.019 6      1252.798          40.300                                                                                                                                  
G21  23757876.780   124848448.706 7     -3169.742          46.150    23757877.860    97284476.619 6     -2469.930          39.400                                                                                                                                  
G22  22705744.540   119319493.852 8      -514.931          48.200    22705743.900    92976270.864 6      -401.244          41.950                                                                                                                                  
G28  22672418.300   119144370.896 7      2506.780          46.800    22672418.600    92839771.974 6      1953.334          40.200                                                                                                                                  
G30  21343419.980   112160432.710 8     -1167.683          49.050    21343423.260    87397744.755 8      -909.887          49.150    21343424.060    87397722.499 8      -909.887          48.200    21343424.180    83756175.888 8      -872.000          53.050  
R05  24083212.100   128738592.114 5      2234.871          31.100    24083217.180                        1738.233          29.100    24083219.660   100130025.50014      1738.249          27.450  
R09  20303300.940   108418453.054 8     -2885.274          51.350    20303304.420    84325464.768 8     -2244.106          49.600    20303304.520    84325473.020 8     -2244.105          48.650  
R10  19339401.400   103089883.573 8       864.855          49.000                                                                                                                                  
R20  20834116.080   111409359.206 6     -2356.766          37.050    20834121.300    86651720.682 7     -1833.043          47.050    20834120.320    86651721.931 7     -1833.042          46.950  
R21  21025887.400   112513778.555 8       686.343          49.800    21025890.220    87510761.125 7       533.823          47.550    21025890.220    87510739.371 7       533.823          46.950  
E01  27700363.100   145566398.689 7      2651.228          44.100    27700367.940   111537882.71915      2031.621          31.350    27700369.460   108702214.200 7      1979.821          43.350  
E13  23632824.520   124191333.007 8     -1287.818          50.850    23632827.240    95159592.424 6      -986.810          40.650    23632829.300    92740277.302 8      -961.755          51.350  
E15  26942108.740   141581716.021 7     -2512.826          44.650    26942115.200   108484732.353 5     -1925.594          31.200    26942117.160   105726558.684 7     -1876.559          42.250  
E21  23969826.720   125962302.165 8      1368.691          50.650    23969830.220    96516564.385 6      1048.710          40.900    23969832.080    94062767.029 8      1022.017          51.150  
E26  24049440.440   126380687.040 8      1124.197          49.600    24049445.640    96837158.037 6       861.339          39.050    24049447.560    94375195.354 8       839.463          49.550  
E27  24047990.660   126372990.983 8     -1162.864          50.950    24047995.020    96831257.857 6      -891.106          40.250    24047997.160    94369427.678 8      -868.446          51.000  
C01  37373452.040   194613365.642 7         6.669          47.150    37373452.520                           5.191          34.850  
C02  37116599.120   193275862.002 7        23.716          43.050                                                                  
C03  36383575.720   189458816.617 7        37.113          47.400    36383573.760   146501581.562 6        28.528          36.300  
C04  38344210.400   199668358.499 7         9.312          43.300                                                                  
C05  39259196.060   204432918.736 6        25.270          40.750                                                                  
C07  36036560.400   187651816.808 7       505.846          47.300    36036556.580   145104265.728 6       391.068          37.200  
C08  36443508.800   189770909.081 7       421.902          46.800    36443505.660   146742879.924 6       326.083          37.100  
C09  39529415.240   205840029.189 6     -1474.863          41.200    39529417.500                       -1140.814          28.550  
C10  36600333.700   190587536.554 7       680.650          45.050    36600332.900   147374344.558 5       526.410          35.650  
C11  22745751.160   118443083.858 7     -1294.597          47.950    22745750.980    91587706.365 6     -1001.206          38.650  
C13  36901247.500   192154473.127 7       769.654          47.350    36901252.660   148586048.273 5       595.320          34.250  
C14  25249782.260   131482242.715 7      2172.558          42.250    25249783.000   101670409.866 5      1679.934          30.000  
C23  23216278.240   120893262.912 8      1531.675          49.600                                                                  
C24  25672059.700   133681139.362 7     -3224.081          46.950                                                                  
C25  22263991.980   115934431.831 8     -1422.837          50.400                                                                  
C28  24872116.380   129515634.786 7      1405.191          45.950                                                                  
> 2021 06 10 03 36 08.0000000  0 39                     
G01  21024164.500   110482720.470 8     -2585.329          48.400    21024168.000    86090438.412 8     -2014.541          48.450    21024168.080    86090442.167 7     -2014.541          47.200    21024167.540    82503344.993 8     -1930.676          52.250  
G03  22177298.840   116542502.572 8      1464.700          48.550    22177303.600    90812365.525 8      1141.328          48.450    22177304.440    90812369.280 7      1141.328          46.150    22177304.460    87028539.505 8      1093.724          50.550  
G06  23974074.600   125984625.198 7      3152.252          43.600    23974081.480    98169845.529 7      2456.301          43.650    23974082.380    98169845.287 7      2456.301          42.100    23974082.580    94079435.463 7      2353.866          45.550  
G07  22047373.960   115859697.295 8     -3000.638          48.650    22047376.380    90280262.518 8     -2338.158          48.200    22047376.780    90280279.273 7     -2338.158          42.850                                                                  
G08  24992962.600   131338874.493 6     -1838.124          41.350    24992969.620   102342010.033 6     -1432.296          37.300    24992970.160   102341971.791 6     -1432.300          39.800    24992969.640    98077662.718 7     -1372.740          43.650  
G14  21244002.240   111637984.039 7      2125.820          47.850    21244003.160    86990659.072 7      1656.486          44.750    21244003.600    86990642.828 8      1656.486          48.050    21244007.320    83366051.448 8      1587.478          52.550  
G17  22330249.020   117346254.981 7       557.035          47.500    22330249.980    91438658.328 7       434.057          47.000    22330250.480    91438648.082 7       434.057          44.700                                                                  
G19  23579307.180   123910099.791 7      1607.643          44.050    23579307.860    96553329.207 6      1252.710          39.750                                                                                                                                  
G21  23758479.980   124851618.578 7     -3169.913          46.100    23758481.080    97286946.663 6     -2470.061          38.050                                                                                                                                  
G22  22705842.620   119320009.316 7      -515.807          47.800    22705842.000    92976672.540 6      -401.924          41.150                                                                                                                                  
G28  22671941.300   119141864.249 7      2506.588          46.600    22671941.580    92837818.757 6      1953.188          40.800                                                                                                                                  
G30  21343642.240   112161600.670 8     -1168.331          48.750    21343645.520    87398654.865 8      -910.389          48.750    21343646.340    87398632.611 7      -910.389          47.600    21343646.440    83757048.061 8      -872.457          53.200  
R05  24082794.060   128736358.054 5      2233.955          30.450    24082793.200                        1737.521          27.800    24082801.460   100128287.928 4      1737.536          26.050  
R09  20303841.320   108421338.664 8     -2886.042          51.000    20303844.820    84327709.143 8     -2244.700          48.600    20303844.920    84327717.395 7     -2244.699          47.250  
R10  19339239.220   103089019.198 8       863.879          48.600                                                                                                                                  
R20  20834556.780   111411715.827 6     -2357.020          37.050    20834561.980    86653553.620 7     -1833.237          46.000    20834561.020    86653554.869 7     -1833.237          46.050  
R21  21025759.200   112513092.461 8       685.725          49.600    21025762.020    87510227.509 7       533.345          46.550    21025762.000    87510205.755 7       533.344          45.950  
E01  27699858.600   145563747.550 7      2651.099          43.950    27699863.780   111535851.352 5      2031.437          31.050    27699864.960   108700234.449 7      1979.792          43.550  
E13  23633069.620   124192621.029 8     -1288.254          50.550    23633072.340    95160579.336 6      -987.053          40.350    23633074.400    92741239.125 8      -961.981          51.650  
E15  26942586.940   141584228.884 7     -2513.038          44.650    26942593.400   108486657.776 5     -1925.469          31.100    26942595.320   105728435.165 7     -1876.569          42.550  
E21  23969566.320   125960933.712 8      1368.214          50.400    23969569.820    96515515.828 6      1048.401          40.500    23969571.660    94061745.134 8      1021.718          51.400  
E26  24049226.540   126379563.051 8      1123.835          49.300    24049231.740    96836296.801 6       861.092          38.700    24049233.660    94374356.019 8       839.144          49.700  
E27  24048212.000   126374154.122 8     -1163.364          50.700    24048216.360    96832149.088 6      -891.437          39.700    24048218.500    94370296.250 8      -868.803          51.250  
C01  37373450.760   194613358.982 7         6.520          46.950    37373451.220   150487398.77015         5.065          34.750  
C02  37116594.560   193275838.166 7        23.836          42.800                                                                  
C03  36383568.600   189458779.551 7        36.819          47.100    36383566.640   146501552.891 5        28.606          35.800  
C04  38344208.640   199668349.383 7         9.119          43.000                                                                  
C05  39259191.320   204432894.030 6        24.203          40.350                                                                  
C07  36036463.280   187651310.998 7       505.650          47.100    36036459.460   145103874.589 6       391.057          36.900  
C08  36443427.840   189770487.454 7       421.524          46.550    36443424.680   146742553.891 6       325.751          36.750  
C09  39529698.500   205841504.234 6     -1475.034          41.100    39529701.420                       -1140.673          27.900  
C10  36600202.980   190586855.902 7       680.444          44.800    36600202.180   147373818.243 5       526.170          35.350  
C11  22745999.800   118444378.578 7     -1294.792          47.650    22745999.620    91588707.519 6     -1001.279          38.200  
C13  36901099.700   192153703.577 7       769.441          47.050    36901104.840   148585453.220 5       594.932          33.750  
C14  25249365.020   131480070.001 6      2172.699          41.750    25249365.740   101668729.769 4      1680.121          29.400  
C23  23215984.160   120891731.532 8      1531.103          49.250                                                                  
C24  25672678.840   133684363.480 7     -3224.148          46.750                                                                  
C25  22264265.280   115935854.981 8     -1423.494          50.100                                                                  
C28  24871846.560   129514229.708 7      1404.966          45.600                                                                  
> 2021 06 10 03 36 09.0000000  0 39                     
G01  21024656.520   110485306.042 8     -2586.016          48.650    21024660.020    86092453.144 8     -2015.076          48.850    21024660.100    86092456.900 8     -2015.076          48.050    21024659.560    82505275.769 8     -1931.044          52.100  
G03  22177020.160   116541038.046 8      1463.989          48.900    22177024.900    90811224.338 8      1140.774          48.850    22177025.760    90811228.097 7      1140.775          46.750    22177025.760    87027445.864 8      1093.312          50.350  
G06  23973474.800   125981473.135 7      3151.621          43.950    23973481.660    98167389.379 7      2455.810          44.050    23973482.560    98167389.137 7      2455.810          42.600    23973482.760    94077081.654 7      2353.580          45.400  
G07  22047944.940   115862697.823 8     -3000.736          49.100    22047947.360    90282600.594 8     -2338.234          49.250    22047947.760    90282617.349 7     -2338.234          43.650                                                                  
G08  24993312.380   131340712.576 6     -1838.084          41.500    24993319.400   102343442.303 5     -1432.269          35.450    24993319.940   102343404.063 6     -1432.270          40.350    24993319.440    98079035.302 7     -1372.682          43.700  
G14  21243597.700   111635858.287 7      2125.478          47.900    21243598.640    86989002.647 7      1656.218          45.550    21243599.100    86988986.398 8      1656.218          48.950    21243602.800    83364464.032 8      1587.240          52.400  
G17  22330143.020   117345697.884 7       556.792          47.750    22330143.980    91438224.231 8       433.867          48.050    22330144.460    91438213.987 7       433.867          45.400                                                                  
G19  23579001.240   123908492.118 7      1607.631          44.150    23579001.940    96552076.477 6      1252.700          40.100                                                                                                                                  
G21  23759083.200   124854788.499 7     -3170.332          46.200    23759084.300    97289416.732 6     -2470.388          38.500                                                                                                                                  
G22  22705940.820   119320525.363 7      -516.470          47.950    22705940.200    92977074.655 6      -402.441          41.800                                                                                                                                  
G28  22671464.300   119139357.673 7      2506.266          46.900    22671464.580    92835865.583 6      1952.937          40.800                                                                                                                                  
G30  21343864.600   112162769.227 8     -1169.184          49.050    21343867.880    87399565.428 8      -911.053          48.950    21343868.700    87399543.177 8      -911.053          48.400    21343868.820    83757920.669 8      -872.910          53.100  
R05  24082375.940   128734124.193 4      2232.846          28.700                                                                    24082383.600   100126550.482 4      1736.671          25.350  
R09  20304381.840   108424224.930 8     -2886.748          51.350    20304385.320    84329954.021 8     -2245.248          48.700    20304385.420    84329962.271 7     -2245.248          47.600  
R10  19339077.240   103088155.700 8       862.861          48.800                                                                                                                                  
R20  20834997.500   111414072.656 6     -2356.860          37.200    20835002.720    86655386.714 7     -1833.113          46.150    20835001.740    86655387.963 7     -1833.113          46.200  
R21  21025631.060   112512406.827 8       685.245          49.950    21025633.880    87509694.241 7       532.971          46.600    21025633.880    87509672.484 7       532.971          46.050  
E01  27699354.100   145561096.432 7      2650.977          44.350    27699358.960   111533819.976 5      2031.356          31.700    27699360.460   108698254.728 7      1979.626          43.400  
E13  23633314.780   124193909.296 8     -1288.504          50.900    23633317.500    95161566.450 6      -987.392          40.500    23633319.540    92742201.141 8      -962.217          51.450  
E15  26943065.120   141586741.703 7     -2512.823          45.050    26943071.580   108488583.186 5     -1925.331          31.350    26943073.500   105730311.613 7     -1876.568          42.550  
E21  23969305.980   125959565.574 8      1367.785          50.700    23969309.480    96514467.506 6      1048.165          40.800    23969311.320    94060723.464 8      1021.478          51.300  
E26  24049012.740   126378439.427 8      1123.245          49.750    24049017.920    96835435.826 6       860.877          39.050    24049019.840    94373516.936 8       838.824          49.650  
E27  24048433.420   126375317.660 8     -1163.899          51.100    24048437.780    96833040.630 6      -891.771          40.350    24048439.920    94371165.123 8      -869.143          51.050  
C01  37373449.480   194613352.358 7         6.469          47.150    37373450.320   150487393.651 5         5.057          34.600  
C02  37116589.980   193275814.368 7        23.429          43.150                                                                  
C03  36383561.480   189458742.509 7        36.773          47.400    36383559.500   146501524.258 6        28.353          36.200  
C04  38344206.900   199668340.281 7         9.000          43.350                                                                  
C05  39259186.580   204432869.293 6        24.263          40.950                                                                  
C07  36036366.140   187650805.250 7       505.502          47.200    36036362.320   145103483.521 6       390.901          37.050  
C08  36443346.900   189770066.035 7       421.129          46.900    36443343.760   146742228.007 6       325.704          37.000  
C09  39529981.760   205842979.202 6     -1474.950          41.150    39529984.220   159170855.36314     -1140.725          28.150  
C10  36600072.260   190586175.230 7       680.609          45.250    36600071.460   147373291.912 5       526.273          35.650  
C11  22746248.460   118445673.374 8     -1294.986          48.000    22746248.260    91589708.746 6     -1001.436          38.550  
C13  36900951.980   192152934.238 7       769.035          47.500    36900957.100   148584858.312 5       594.741          34.250  
C14  25248947.760   131477897.224 7      2172.552          42.200    25248948.480   101667049.648 4      1679.863          29.850  
C23  23215690.160   120890200.625 8      1530.471          49.550                                                                  
C24  25673298.020   133687587.724 7     -3224.422          46.800                                                                  
C25  22264538.680   115937278.631 8     -1424.046          50.500                                                                  
C28  24871576.760   129512824.862 7      1404.473          46.000                                                                  
> 2021 06 10 03 36 10.0000000  0 39                     
G01  21025148.600   110487892.056 8     -2586.352          48.700    21025152.120    86094468.225 8     -2015.338          48.700    21025152.200    86094471.980 8     -2015.338          48.550    21025151.660    82507206.883 8     -1931.297          52.250  
G03  22176741.560   116539574.038 8      1463.729          49.000    22176746.300    90810083.565 8      1140.573          49.350    22176747.160    90810087.319 7      1140.573          47.250    22176747.160    87026352.613 8      1093.058          50.550  
G06  23972875.060   125978321.417 7      3151.479          43.850    23972881.920    98164933.501 7      2455.700          44.250    23972882.820    98164933.259 7      2455.699          43.150    23972883.020    94074728.090 7      2353.418          45.650  
G07  22048515.980   115865698.679 8     -3001.088          49.000    22048518.420    90284938.925 8     -2338.509          48.700    22048518.820    90284955.679 7     -2338.509          43.750                                                                  
G08  24993662.140   131342550.674 6     -1838.367          41.000    24993669.200   102344874.592 6     -1432.490          36.800    24993669.740   102344836.356 6     -1432.489          40.900    24993669.240    98080407.900 7     -1372.602          43.700  
G14  21243193.240   111633732.873 7      2125.096          47.950    21243194.180    86987346.482 7      1655.921          46.650    21243194.640    86987330.237 8      1655.921          49.300    21243198.340    83362876.868 8      1587.052          52.550  
G17  22330037.020   117345140.879 7       556.973          47.550    22330038.000    91437790.209 7       434.009          47.250    22330038.480    91437779.965 7       434.010          45.600                                                                  
G19  23578695.340   123906884.610 7      1607.494          44.300    23578696.020    96550823.892 6      1252.597          40.550                                                                                                                                  
G21  23759686.440   124857958.486 7     -3170.080          45.950    23759687.500    97291886.860 6     -2470.189          39.750                                                                                                                                  
G22  22706039.140   119321042.040 7      -517.153          47.900    22706038.520    92977477.267 7      -402.974          42.750                                                                                                                                  
G28  22670987.320   119136851.190 7      2506.365          46.850    22670987.640    92833912.485 6      1953.015          41.300                                                                                                                                  
G30  21344087.100   112163938.381 8     -1169.509          48.950    21344090.360    87400476.461 8      -911.306          48.650    21344091.180    87400454.209 8      -911.306          48.900    21344091.300    83758793.746 8      -873.298          53.250  
R05  24081956.940   128731890.446 4      2233.721          29.450    24081965.820                        1737.339          26.100    24081965.880   100124813.126 4      1737.348          25.500  
R09  20304922.480   108427111.926 8     -2887.460          51.400    20304925.960    84332199.466 8     -2245.801          48.300    20304926.080    84332207.716 7     -2245.801          47.100  
R10  19338915.400   103087293.101 8       862.139          49.050                                                                                                                                  
R20  20835438.300   111416429.694 6     -2357.343          37.700    20835443.500    86657219.972 7     -1833.487          45.850    20835442.520    86657221.219 7     -1833.487          45.750  
R21  21025503.040   112511721.745 8       684.713          50.200    21025505.860    87509161.405 7       532.558          46.250    21025505.860    87509139.651 7       532.558          45.650  
E01  27698849.620   145558445.406 7      2650.895          44.350    27698853.880   111531788.658 5      2031.481          31.200    27698855.980   108696275.056 7      1979.672          43.750  
E13  23633559.980   124195197.868 8     -1288.794          50.850    23633562.700    95162553.789 6      -987.438          40.300    23633564.760    92743163.386 8      -962.364          51.650  
E15  26943543.300   141589254.569 7     -2512.921          45.250    26943549.780   108490508.619 5     -1925.291          31.200    26943551.660   105732188.094 7     -1876.357          42.600  
E21  23969045.700   125958197.796 8      1367.537          50.750    23969049.220    96513419.476 6      1047.946          40.550    23969051.040    94059702.072 8      1021.308          51.400  
E26  24048798.980   126377316.187 8      1123.019          49.850    24048804.180    96834575.170 6       860.521          38.800    24048806.100    94372678.155 8       838.695          49.700  
E27  24048654.920   126376481.635 8     -1164.286          51.250    24048659.280    96833932.499 6      -892.020          39.900    24048661.420    94372034.318 8      -869.308          51.200  
C01  37373448.220   194613345.810 7         6.467          47.300    37373449.080   150487388.581 5         5.090          34.250  
C02  37116585.420   193275790.654 7        23.446          43.100                                                                  
C03  36383554.380   189458705.535 7        36.921          47.550    36383552.420   146501495.671 5        28.479          35.800  
C04  38344205.160   199668331.254 7         8.991          43.550                                                                  
C05  39259181.840   204432844.632 6        24.417          41.100                                                                  
C07  36036269.040   187650299.604 7       505.579          47.500    36036265.200   145103092.514 6       391.011          36.750  
C08  36443266.020   189769644.862 7       421.123          47.000    36443262.880   146741902.343 6       325.563          36.600  
C09  39530265.000   205844454.159 6     -1474.997          41.350    39530267.000   159171995.885 4     -1140.615          28.100  
C10  36599941.560   190585494.649 7       680.296          45.450    36599940.760   147372765.626 5       526.282          35.200  
C11  22746497.120   118446968.290 7     -1295.090          47.950    22746496.920    91590710.051 6     -1001.361          38.150  
C13  36900804.260   192152165.091 7       769.055          47.700    36900809.360   148584263.563 5       594.673          33.950  
C14  25248530.480   131475724.405 7      2172.628          42.050    25248531.200   101665369.472 4      1680.313          29.300  
C23  23215396.260   120888670.252 8      1530.102          49.750                                                                  
C24  25673917.240   133690812.136 7     -3224.644          47.050                                                                  
C25  22264812.180   115938702.833 8     -1424.569          50.650                                                                  
C28  24871307.020   129511420.270 7      1404.592          46.100                                                                  
> 2021 06 10 03 36 11.0000000  0 39                     
G01  21025640.760   110490478.303 8     -2586.495          48.900    21025644.260    86096483.487 8     -2015.449          48.750    21025644.360    86096487.240 8     -2015.449          48.350    21025643.820    82509138.166 8     -1931.387          52.300  
G03  22176463.040   116538110.345 8      1463.321          49.100    22176467.780    90808943.027 8      1140.255          48.850    22176468.620    90808946.784 7      1140.255          46.950    22176468.620    87025259.596 8      1092.818          50.600  
G06  23972275.340   125975169.810 7      3151.421          43.900    23972282.180    98162477.707 7      2455.654          43.400    23972283.100    98162477.462 7      2455.654          43.250    23972283.280    94072374.613 7      2353.443          45.700  
G07  22049087.040   115868699.649 8     -3001.221          49.000    22049089.480    90287277.341 8     -2338.612          49.000    22049089.900    90287294.097 7     -2338.613          43.700                                                                  
G08  24994011.880   131344388.549 6     -1837.926          40.950    24994018.940   102346306.702 6     -1432.147          38.650    24994019.500   102346268.473 6     -1432.146          40.650    24994018.980    98081780.337 7     -1372.395          43.700  
G14  21242788.800   111631607.536 7      2125.248          47.800    21242789.740    86985690.380 7      1656.040          45.800    21242790.200    86985674.135 8      1656.040          49.200    21242793.920    83361289.770 8      1587.022          52.550  
G17  22329931.020   117344583.780 7       556.994          47.700    22329931.980    91437356.112 8       434.026          48.050    22329932.460    91437345.868 7       434.026          45.350                                                                  
G19  23578389.420   123905277.058 7      1607.396          43.900    23578390.100    96549571.260 6      1252.521          40.050                                                                                                                                  
G21  23760289.640   124861128.350 7     -3169.968          46.250    23760290.700    97294356.887 6     -2470.103          38.500                                                                                                                                  
G22  22706137.540   119321559.128 7      -517.390          47.800    22706136.900    92977880.198 7      -403.157          42.400                                                                                                                                  
G28  22670510.320   119134344.588 7      2506.436          46.850    22670510.640    92831959.293 6      1953.070          41.250                                                                                                                                  
G30  21344309.660   112165107.936 8     -1169.824          48.850    21344312.920    87401387.805 8      -911.551          48.800    21344313.760    87401365.553 8      -911.551          48.700    21344313.860    83759667.115 8      -873.563          53.250  
R05  24081538.520   128729656.780 4      2233.172          29.250    24081538.580                        1736.911          29.500    24081548.020   100123075.827 4      1736.919          26.200  
R09  20305463.200   108429999.402 8     -2887.929          51.250    20305466.700    84334445.283 8     -2246.166          48.300    20305466.800    84334453.531 7     -2246.166          47.200  
R10  19338753.680   103086431.186 8       861.502          49.050                                                                                                                                  
R20  20835879.060   111418786.740 6     -2357.098          37.650    20835884.280    86659053.238 7     -1833.296          45.900    20835883.300    86659054.479 7     -1833.296          45.900  
R21  21025375.080   112511036.984 8       684.526          50.000    21025377.900    87508628.817 7       532.412          46.450    21025377.880    87508607.065 7       532.413          45.850  
E01  27698345.120   145555794.212 7      2651.035          44.500    27698349.600   111529757.236 5      2031.432          30.900    27698351.480   108694295.274 7      1979.770          43.650  
E13  23633805.200   124196486.507 8     -1288.752          50.850    23633807.920    95163541.188 6      -987.472          39.900    23633809.980    92744125.682 8      -962.417          51.650  
E15  26944021.440   141591767.219 7     -2512.730          45.050    26944027.920   108492433.905 5     -1925.297          30.950    26944029.800   105734064.431 7     -1876.382          42.500  
E21  23968785.440   125956830.144 8      1367.537          50.800    23968788.960    96512371.541 6      1047.802          39.950    23968790.780    94058680.775 8      1021.217          51.450  
E26  24048585.260   126376193.120 8      1123.026          49.900    24048590.480    96833714.648 6       860.393          38.100    24048592.400    94371839.503 8       838.569          49.700  
E27  24048876.460   126377645.822 8     -1164.359          51.100    24048880.800    96834824.536 6      -892.034          39.400    24048882.960    94372903.683 8      -869.486          51.250  
C01  37373446.940   194613339.093 7         6.654          47.300    37373447.520   150487383.393 5         5.203          34.000  
C02  37116580.840   193275766.790 7        23.862          43.200                                                                  
C03  36383547.260   189458668.428 7        36.969          47.300    36383545.260   146501466.963 5        28.685          35.250  
C04  38344203.400   199668322.089 7         9.408          43.250                                                                  
C05  39259177.080   204432819.816 6        24.830          41.200                                                                  
C07  36036171.920   187649793.878 7       505.675          47.550    36036168.100   145102701.454 6       391.093          36.350  
C08  36443185.140   189769223.753 7       421.009          46.950    36443182.000   146741576.711 6       325.518          36.000  
C09  39530548.200   205845928.840 6     -1474.749          41.050    39530549.760   159173136.194 4     -1140.168          27.750  
C10  36599810.820   190584813.914 7       680.824          45.450    36599810.060   147372239.252 5       526.494          34.850  
C11  22746745.780   118448263.107 7     -1294.826          47.950    22746745.560    91591711.278 6     -1001.231          37.750  
C13  36900656.560   192151395.986 7       768.887          47.700    36900661.660   148583668.828 5       594.819          33.500  
C14  25248113.160   131473551.326 7      2172.987          42.200    25248113.880   101663689.126 4      1680.376          28.900  
C23  23215102.440   120887140.200 8      1529.644          49.750                                                                  
C24  25674536.440   133694036.447 7     -3224.532          46.950                                                                  
C25  22265085.740   115940127.363 8     -1424.819          50.600                                                                  
C28  24871037.300   129510015.731 7      1404.482          45.850                                                                  
> 2021 06 10 03 36 12.0000000  0 39                     
G01  21026132.980   110493065.034 8     -2586.998          48.600    21026136.500    86098499.117 8     -2015.842          48.400    21026136.600    86098502.874 8     -2015.841          48.850    21026136.060    82511069.824 8     -1931.870          52.200  
G03  22176184.620   116536647.209 8      1462.894          48.900    22176189.340    90807802.925 8      1139.921          49.000    22176190.200    90807806.678 7      1139.921          47.500    22176190.180    87024167.000 8      1092.367          50.400  
G06  23971675.680   125972018.578 7      3150.854          43.550    23971682.520    98160022.201 7      2455.214          43.250    23971683.420    98160021.959 7      2455.214          43.500    23971683.640    94070021.430 7      2353.002          45.600  
G07  22049658.180   115871700.973 8     -3001.637          48.750    22049660.620    90289616.035 8     -2338.938          48.450    22049661.020    90289632.787 7     -2338.938          44.150                                                                  
G08  24994361.640   131346226.459 6     -1837.652          41.250    24994368.720   102347738.839 6     -1431.932          37.350    24994369.240   102347700.606 6     -1431.936          40.850    24994368.760    98083152.814 7     -1372.579          43.400  
G14  21242384.420   111629482.574 7      2124.800          47.700    21242385.380    86984034.562 7      1655.690          46.850    21242385.820    86984018.318 8      1655.690          49.750    21242389.540    83359702.945 8      1586.665          52.550  
G17  22329825.020   117344026.809 7       556.808          47.650    22329826.000    91436922.113 7       433.880          47.500    22329826.480    91436911.867 7       433.880          45.950                                                                  
G19  23578083.540   123903669.674 7      1607.387          43.600    23578084.220    96548318.745 6      1252.511          41.300                                                                                                                                  
G21  23760892.860   124864298.308 7     -3169.994          46.000    23760893.940    97296826.985 6     -2470.124          40.500                                                                                                                                  
G22  22706236.060   119322076.873 7      -518.053          47.800    22706235.420    92978283.638 7      -403.674          42.350                                                                                                                                  
G28  22670033.340   119131838.109 7      2506.385          46.750    22670033.660    92830006.189 6      1953.029          41.200                                                                                                                                  
G30  21344532.340   112166278.156 8     -1170.479          48.950    21344535.620    87402299.663 8      -912.062          49.200    21344536.440    87402277.409 8      -912.063          49.050    21344536.560    83760540.981 8      -874.184          53.150  
R05  24081120.960   128727423.306 4      2233.162          28.050    24081125.900                        1736.904          28.700    24081130.400   100121338.668 4      1736.904          26.150  
R09  20306004.080   108432887.623 8     -2888.558          51.250    20306007.580    84336691.675 8     -2246.656          48.550    20306007.680    84336699.925 7     -2246.656          47.500  
R10  19338592.160   103085570.207 8       860.543          49.200                                                                                                                                  
R20  20836319.900   111421144.035 6     -2357.299          37.650    20836325.100    86660886.694 7     -1833.452          46.000    20836324.120    86660887.932 7     -1833.454          46.100  
R21  21025247.220   112510352.777 8       683.896          49.750    21025250.040    87508096.654 7       531.921          46.700    21025250.020    87508074.902 7       531.922          45.800  
E01  27697840.640   145553143.128 7      2650.933          44.250    27697845.260   111527725.848 5      2031.573          30.350    27697846.980   108692315.568 7      1979.617          43.400  
E13  23634050.480   124197775.486 8     -1289.218          50.600    23634053.200    95164528.857 6      -987.807          39.600    23634055.260    92745088.231 8      -962.721          51.450  
E15  26944499.600   141594279.925 7     -2512.853          44.950    26944506.080   108494359.227 5     -1925.362          30.550    26944507.960   105735940.797 7     -1876.319          42.250  
E21  23968525.260   125955462.889 8      1367.095          50.700    23968528.780    96511323.902 6      1047.454          39.800    23968530.600    94057659.771 8      1020.873          51.300  
E26  24048371.640   126375070.492 8      1122.406          49.700    24048376.840    96832854.441 6       860.005          38.000    24048378.760    94371001.179 8       838.129          49.600  
E27  24049098.080   126378810.475 8     -1164.881          51.000    24049102.420    96835716.942 6      -892.599          39.100    24049104.580    94373773.393 8      -869.931          51.100  
C01  37373445.680   194613332.498 7         6.648          47.100    37373445.900   150487378.307 5         4.873          33.900  
C02  37116576.280   193275743.042 7        23.863          42.900                                                                  
C03  36383540.160   189458631.423 7        36.751          47.300    36383538.180   146501438.360 5        28.478          35.150  
C04  38344201.660   199668313.024 7         9.108          43.500                                                                  
C05  39259172.340   204432795.105 6        24.642          40.850                                                                  
C07  36036074.840   187649288.276 7       505.468          47.250    36036071.000   145102310.496 5       390.804          35.950  
C08  36443104.340   189768802.923 7       420.650          46.750    36443101.160   146741251.278 6       325.456          36.000  
C09  39530831.400   205847403.576 6     -1474.938          41.100    39530834.360   159174276.547 4     -1140.393          27.650  
C10  36599680.120   190584133.291 7       680.635          45.250    36599679.340   147371712.953 5       526.316          34.650  
C11  22746994.480   118449558.065 7     -1294.978          47.650    22746994.260    91592712.633 6     -1001.377          37.550  
C13  36900508.920   192150627.129 7       768.749          47.500    36900514.000   148583074.323 5       594.343          33.300  
C14  25247695.820   131471378.231 7      2173.002          42.050    25247696.420   101662008.753 4      1680.336          28.650  
C23  23214808.700   120885610.689 8      1529.362          49.550                                                                  
C24  25675155.660   133697260.958 7     -3224.466          46.850                                                                  
C25  22265359.400   115941552.473 8     -1425.438          50.600                                                                  
C28  24870767.620   129508611.475 7      1404.133          45.900                                                                  
> 2021 06 10 03 36 13.0000000  0 38                     
G01  21026625.300   110495652.190 8     -2587.434          48.700    21026628.820    86100515.079 8     -2016.186          48.800    21026628.900    86100518.834 8     -2016.184          48.650    21026628.380    82513001.791 8     -1932.267          52.400  
G03  22175906.280   116535184.596 8      1462.221          48.750    22175911.020    90806663.223 8      1139.395          48.850    22175911.860    90806666.975 7      1139.395          47.250    22175911.860    87023074.787 8      1091.929          50.600  
G06  23971076.100   125968867.643 7      3150.718          43.650    23971082.920    98157566.929 7      2455.104          43.850    23971083.840    98157566.687 7      2455.104          43.100    23971084.040    94067668.465 7      2352.760          45.800  
G07  22050229.360   115874702.589 8     -3001.939          48.950    22050231.820    90291954.946 8     -2339.176          48.800    22050232.220    90291971.704 7     -2339.177          44.050                                                                  
G08  24994711.380   131348064.386 6     -1837.969          40.900    24994718.500   102349170.997 5     -1432.189          35.200    24994719.000   102349132.743 6     -1432.188          40.800    24994718.520    98084525.253 7     -1372.664          43.750  
G14  21241980.100   111627357.889 7      2124.432          47.700    21241981.060    86982378.960 7      1655.399          46.400    21241981.520    86982362.717 8      1655.399          49.550    21241985.240    83358116.334 8      1586.399          52.750  
G17  22329719.040   117343469.912 7       556.797          47.700    22329720.040    91436488.163 7       433.870          47.550    22329720.500    91436477.921 7       433.871          45.850                                                                  
G19  23577777.680   123902062.435 7      1607.149          43.950    23577778.360    96547066.355 6      1252.325          40.250                                                                                                                                  
G21  23761496.100   124867468.338 7     -3170.021          46.200    23761497.140    97299297.131 6     -2470.149          38.900                                                                                                                                  
G22  22706334.700   119322595.232 7      -518.740          47.750    22706334.060    92978687.552 7      -404.214          43.100                                                                                                                                  
G28  22669556.380   119129331.720 7      2506.199          46.600    22669556.720    92828053.154 6      1952.883          40.900                                                                                                                                  
G30  21344755.140   112167448.960 8     -1171.006          48.950    21344758.400    87403211.969 8      -912.476          49.350    21344759.220    87403189.717 8      -912.476          49.000    21344759.360    83761415.282 8      -874.611          53.350  
R09  20306545.100   108435776.546 8     -2889.426          51.200    20306548.580    84338938.607 8     -2247.333          48.400    20306548.680    84338946.855 7     -2247.334          47.200  
R10  19338430.800   103084710.107 8       859.601          49.150                                                                                                                                  
R20  20836760.800   111423501.546 6     -2358.071          37.550    20836765.940    86662720.308 7     -1834.057          45.950    20836764.980    86662721.546 7     -1834.058          46.000  
R21  21025119.440   112509669.029 8       683.447          49.300    21025122.240    87507564.848 7       531.569          46.800    21025122.240    87507543.098 7       531.570          45.900  
E01  27697336.160   145550492.075 7      2650.791          44.350    27697340.820   111525694.576 5      2030.946          30.800    27697342.520   108690335.892 7      1979.564          43.750  
E13  23634295.800   124199064.722 8     -1289.428          50.700    23634298.540    95165516.711 6      -988.067          39.800    23634300.580    92746050.972 8      -962.943          51.800  
E15  26944977.760   141596792.612 7     -2512.880          44.950    26944984.200   108496284.549 5     -1925.526          30.400    26944986.100   105737817.156 7     -1876.388          42.450  
E21  23968265.140   125954095.970 8      1366.607          50.800    23968268.680    96510276.525 6      1047.117          39.950    23968270.480    94056639.026 8      1020.511          51.500  
E26  24048158.080   126373948.232 8      1121.949          49.650    24048163.280    96831994.525 6       859.605          38.250    24048165.200    94370163.127 8       837.771          49.800  
E27  24049319.780   126379975.548 8     -1165.420          51.050    24049324.140    96836609.653 6      -892.911          39.600    24049326.280    94374643.413 8      -870.275          51.350  
C01  37373444.420   194613325.963 7         6.420          47.050    37373445.240   150487373.248 5         4.914          33.950  
C02  37116571.720   193275719.323 7        23.538          42.750                                                                  
C03  36383533.060   189458594.454 7        36.926          47.200    36383531.080   146501409.770 5        28.485          35.250  
C04  38344199.940   199668304.012 7         8.930          43.350                                                                  
C05  39259167.620   204432770.444 6        24.583          40.700                                                                  
C07  36035977.760   187648782.773 7       505.145          47.300    36035973.940   145101919.606 6       390.750          36.150  
C08  36443023.540   189768382.291 7       420.386          46.850    36443020.420   146740926.035 6       325.116          36.100  
C09  39531114.600   205848878.226 6     -1474.863          41.000    39531117.560   159175416.828 4     -1140.413          27.600  
C10  36599549.420   190583452.683 7       680.623          45.200    36599548.640   147371186.670 5       526.224          34.650  
C11  22747243.180   118450853.124 7     -1295.122          47.550    22747242.940    91593714.053 6     -1001.589          37.650  
C13  36900361.300   192149858.480 7       768.435          47.400    36900366.380   148582479.953 5       594.142          33.500  
C14  25247278.500   131469205.082 6      2173.068          41.950    25247279.160   101660328.342 4      1680.241          29.350  
C23  23214515.080   120884081.699 8      1528.626          49.650                                                                  
C24  25675774.920   133700485.600 7     -3224.754          46.800                                                                  
C25  22265633.180   115942978.105 8     -1425.966          50.400                                                                  
C28  24870497.980   129507207.459 7      1403.806          45.600                                                                  
> 2021 06 10 03 36 14.0000000  0 38                     
G01  21027117.680   110498239.620 8     -2587.461          48.850    21027121.180    86102531.234 8     -2016.208          48.900    21027121.260    86102534.990 8     -2016.209          49.050    21027120.740    82514933.955 8     -1932.150          52.400  
G03  22175628.020   116533722.306 8      1462.355          48.900    22175632.740    90805523.758 8      1139.496          48.800    22175633.580    90805527.510 8      1139.495          48.100    22175633.580    87021982.823 8      1091.939          50.650  
G06  23970476.520   125965716.860 7      3151.093          43.600    23970483.340    98155111.751 7      2455.395          43.400    23970484.260    98155111.509 7      2455.394          43.600    23970484.460    94065315.602 7      2352.900          45.700  
G07  22050800.580   115877704.336 8     -3001.588          49.050    22050803.020    90294293.950 8     -2338.906          49.650    22050803.420    90294310.703 7     -2338.905          44.400                                                                  
G08  24995061.100   131349902.096 6     -1837.729          40.750    24995068.200   102350602.913 6     -1432.008          38.900    24995068.680   102350564.687 6     -1432.007          41.700    24995068.240    98085897.555 7     -1372.054          44.000  
G14  21241575.800   111625233.344 7      2124.720          47.850    21241576.760    86980723.450 7      1655.622          46.800    21241577.220    86980707.203 8      1655.622          50.050    21241580.940    83356529.825 8      1586.568          52.700  
G17  22329613.060   117342912.955 7       556.993          47.800    22329614.060    91436054.151 7       434.019          47.850    22329614.520    91436043.906 7       434.019          46.250                                                                  
G19  23577471.840   123900455.185 7      1607.609          43.950    23577472.480    96545813.938 6      1252.681          41.850                                                                                                                                  
G21  23762099.320   124870638.254 7     -3169.983          46.300    23762100.360    97301767.171 6     -2470.121          38.950                                                                                                                                  
G22  22706433.420   119323114.025 7      -518.790          47.750    22706432.780    92979091.784 7      -404.255          42.950                                                                                                                                  
G28  22669079.400   119126825.244 7      2506.662          46.500    22669079.740    92826100.035 6      1953.239          41.300                                                                                                                                  
G30  21344978.000   112168620.210 8     -1171.285          49.000    21344981.280    87404124.611 8      -912.696          49.200    21344982.100    87404102.357 8      -912.696          49.350    21344982.240    83762289.911 8      -874.714          53.350  
R09  20307086.200   108438666.000 8     -2889.563          51.250    20307089.660    84341185.936 8     -2247.445          48.950    20307089.800    84341194.184 7     -2247.445          47.750  
R10  19338269.580   103083850.714 8       859.196          49.200                                                                                                                                  
R20  20837201.660   111425859.050 6     -2357.223          37.600    20837206.820    86664553.903 7     -1833.399          46.800    20837205.840    86664555.137 7     -1833.400          46.700  
R21  21024991.720   112508985.614 8       683.356          49.200    21024994.540    87507033.289 7       531.498          47.350    21024994.540    87507011.538 7       531.498          46.500  
E01  27696831.660   145547840.931 7      2651.200          44.550    27696836.540   111523663.141 5      2031.702          31.550    27696838.020   108688356.141 7      1979.814          43.650  
E13  23634541.160   124200354.085 8     -1289.265          50.800    23634543.900    95166504.652 6      -987.800          40.000    23634545.940    92747013.804 8      -962.687          51.800  
E15  26945455.880   141599305.158 7     -2512.403          44.950    26945462.340   108498209.740 5     -1925.270          31.150    26945464.220   105739693.396 7     -1875.909          42.400  
E21  23968005.060   125952729.209 8      1366.911          50.900    23968008.600    96509229.263 6      1047.334          40.300    23968010.400    94055618.396 8      1020.635          51.600  
E26  24047944.560   126372826.169 8      1122.121          49.800    24047949.760    96831134.779 6       859.697          38.600    24047951.680    94369325.221 8       837.928          49.900  
E27  24049541.540   126381140.868 8     -1165.302          51.200    24049545.900    96837502.564 6      -892.952          39.800    24049548.040    94375513.616 8      -870.219          51.400  
C01  37373443.140   194613319.305 7         6.910          47.100    37373444.500   150487368.094 5         5.214          34.250  
C02  37116567.160   193275695.500 7        23.968          42.700                                                                  
C03  36383525.940   189458557.391 7        37.332          47.300    36383523.960   146501381.102 5        28.831          35.700  
C04  38344198.180   199668294.895 7         9.235          43.150                                                                  
C05  39259162.860   204432745.678 6        24.752          40.400                                                                  
C07  36035880.660   187648277.184 7       505.761          47.250    36035876.820   145101528.660 6       391.075          36.700  
C08  36442942.780   189767961.752 7       420.655          46.850    36442939.660   146740600.856 6       325.121          36.600  
C09  39531397.760   205850352.693 6     -1474.205          41.000    39531399.740   159176557.004 4     -1139.808          28.000  
C10  36599418.680   190582771.961 7       680.969          45.100    36599417.940   147370660.293 5       526.390          35.100  
C11  22747491.860   118452148.108 7     -1294.726          47.400    22747491.620    91594715.409 6     -1001.289          37.950  
C13  36900213.700   192149089.856 7       768.749          47.400    36900218.800   148581885.602 5       594.378          33.850  
C14  25246861.120   131467031.703 7      2173.540          42.200    25246861.820   101658647.740 4      1680.795          29.650  
C23  23214221.520   120882553.039 8      1528.651          49.600                                                                  
C24  25676394.160   133703710.205 7     -3224.467          46.700                                                                  
C25  22265907.020   115944404.100 8     -1426.116          50.500                                                                  
C28  24870228.360   129505803.522 7      1404.123          45.600                                                                  
> 2021 06 10 03 36 15.0000000  0 39                     
G01  21027610.120   110500827.507 8     -2588.384          48.900    21027613.640    86104547.775 8     -2016.924          48.950    21027613.720    86104551.534 7     -2016.924          47.850    21027613.220    82516866.470 8     -1932.861          50.850  
G03  22175349.860   116532260.563 8      1461.320          48.950    22175354.580    90804384.743 8      1138.692          48.900    22175355.420    90804388.500 7      1138.691          46.400    22175355.400    87020891.266 8      1091.192          49.000  
G06  23969877.020   125962566.443 7      3150.036          43.200    23969883.840    98152656.887 7      2454.572          43.500    23969884.740    98152656.643 7      2454.572          42.050    23969884.960    94062963.008 7      2352.364          44.100  
G07  22051371.860   115880706.446 8     -3002.551          49.150    22051374.300    90296633.262 8     -2339.653          49.100    22051374.720    90296650.016 7     -2339.652          43.200                                                                  
G08  24995410.800   131351739.824 6     -1837.985          40.850    24995417.900   102352034.898 6     -1432.207          37.350    24995418.380   102351996.673 6     -1432.205          40.250    24995417.960    98087269.878 7     -1372.416          42.250  
G14  21241171.580   111623109.146 7      2123.719          47.900    21241172.540    86979068.234 7      1654.845          45.600    21241173.000    86979051.990 8      1654.845          48.850    21241176.720    83354943.557 8      1586.016          51.000  
G17  22329507.080   117342356.084 7       556.516          47.850    22329508.100    91435620.232 8       433.648          48.050    22329508.540    91435609.986 7       433.648          44.850                                                                  
G19  23577166.000   123898848.082 7      1606.742          44.000    23577166.660    96544561.654 6      1252.008          40.550                                                                                                                                  
G21  23762702.560   124873808.259 7     -3170.238          46.200    23762703.600    97304237.314 6     -2470.316          39.200                                                                                                                                  
G22  22706532.260   119323633.477 7      -520.057          47.850    22706531.640    92979496.560 7      -405.239          42.000                                                                                                                                  
G28  22668602.440   119124318.876 7      2506.040          46.700    22668602.780    92824147.023 6      1952.755          40.600                                                                                                                                  
G30  21345201.020   112169792.083 8     -1172.458          49.100    21345204.280    87405037.763 8      -913.607          48.950    21345205.100    87405015.511 8      -913.606          48.000    21345205.240    83763165.001 8      -875.440          51.850  
R05  24079876.440                        2231.954          28.700    24079870.780                        1735.965          28.050    24079869.800                        1735.965          27.200  
R09  20307627.440   108441556.170 8     -2890.802          51.400    20307630.920    84343433.850 7     -2248.405          47.900    20307631.040    84343442.098 7     -2248.405          46.850  
R10  19338108.520   103082992.235 8       857.709          49.550                                                                                                                                  
R20  20837642.560   111428216.791 6     -2358.229          38.200    20837647.720    86666387.703 7     -1834.179          45.950    20837646.740    86666388.942 7     -1834.180          45.700  
R21  21024864.100   112508302.742 8       682.282          49.600    21024866.940    87506502.178 7       530.666          46.250    21024866.920    87506480.426 7       530.666          45.550  
E01  27696327.180   145545189.845 7      2650.858          44.550    27696331.760   111521631.814 4      2031.224          28.450    27696333.540   108686376.438 6      1979.501          41.950  
E13  23634786.560   124201643.747 8     -1290.124          50.900    23634789.320    95167492.843 6      -988.421          37.800    23634791.360    92747976.869 8      -963.361          50.100  
E15  26945934.020   141601817.727 7     -2512.889          44.900    26945940.480   108500134.941 4     -1925.554          28.600    26945942.360   105741569.679 6     -1876.432          40.750  
E21  23967745.040   125951362.829 8      1365.938          51.000    23967748.580    96508182.296 6      1046.646          38.250    23967750.380    94054598.046 8      1020.024          49.900  
E26  24047731.100   126371704.508 8      1121.236          49.950    24047736.300    96830275.310 6       859.190          36.500    24047738.240    94368487.617 8       837.297          48.300  
E27  24049763.380   126382306.632 8     -1166.293          51.250    24049767.720    96838395.804 6      -893.613          37.650    24049769.880    94376384.152 8      -870.876          49.750  
C01  37373441.880   194613312.731 7         6.146          47.300    37373442.780   150487362.998 5         4.882          32.100  
C02  37116562.600   193275671.749 7        23.531          42.900                                                                  
C03  36383518.840   189458520.394 7        36.824          47.400    36383516.840   146501352.495 5        28.418          33.550  
C04  38344196.440   199668285.842 7         8.727          43.550                                                                  
C05  39259158.120   204432720.988 6        24.192          40.700                                                                  
C07  36035783.580   187647771.715 7       505.182          47.550    36035779.740   145101137.792 5       390.646          34.350  
C08  36442862.080   189767541.508 7       419.722          46.800    36442858.960   146740275.886 5       324.607          34.350  
C09  39531680.900   205851827.122 6     -1474.621          41.300                                                                  
C10  36599287.980   190582091.299 7       680.216          45.300    36599287.200   147370133.926 5       526.399          32.950  
C11  22747740.580   118453443.206 7     -1295.391          47.550    22747740.320    91595716.859 5     -1001.555          35.850  
C13  36900066.140   192148321.494 7       768.042          47.550    36900071.240   148581291.476 5       593.655          31.500  
C14  25246443.740   131464858.291 7      2173.179          42.300    25246444.460   101656967.134 4      1680.427          27.200  
C23  23213928.060   120881024.905 8      1527.662          49.750                                                                  
C24  25677013.440   133706934.976 7     -3225.004          47.000                                                                  
C25  22266180.980   115945830.646 8     -1427.125          50.600                                                                  
C28  24869958.800   129504399.862 7      1403.302          46.100                                                                  
> 2021 06 10 03 36 16.0000000  0 39                     
G01  21028102.640   110503415.746 8     -2588.502          48.700    21028106.180    86106564.593 8     -2017.015          48.850    21028106.260    86106568.350 7     -2017.015          47.650    21028105.740    82518799.244 8     -1932.999          52.450  
G03  22175071.800   116530799.264 8      1460.929          48.700    22175076.500    90803246.077 8      1138.388          48.700    22175077.360    90803249.831 7      1138.388          46.250    22175077.320    87019800.030 8      1090.950          50.550  
G06  23969277.560   125959416.267 7      3149.802          43.100    23969284.380    98150202.208 7      2454.392          43.050    23969285.280    98150201.971 6      2454.392          41.700    23969285.500    94060610.594 7      2352.252          45.800  
G07  22051943.180   115883708.763 8     -3002.588          48.750    22051945.640    90298972.739 8     -2339.679          48.550    22051946.040    90298989.492 7     -2339.679          43.000                                                                  
G08  24995760.500   131353577.441 6     -1837.693          40.600    24995767.580   102353466.798 6     -1431.979          37.100    24995768.060   102353428.579 6     -1431.977          39.750    24995767.680    98088642.135 7     -1372.271          43.550  
G14  21240767.380   111620985.144 7      2123.771          47.750    21240768.360    86977413.177 7      1654.886          45.250    21240768.820    86977396.928 8      1654.886          48.650    21240772.540    83353357.464 8      1585.944          52.700  
G17  22329401.120   117341799.244 7       556.742          47.650    22329402.140    91435186.335 7       433.826          47.600    22329402.600    91435176.092 7       433.826          44.650                                                                  
G19  23576860.200   123897241.063 7      1606.769          43.900    23576860.840    96543309.446 6      1252.031          39.650                                                                                                                                  
G21  23763305.780   124876978.260 7     -3169.941          46.250    23763306.820    97306707.454 6     -2470.083          38.150                                                                                                                                  
G22  22706631.200   119324153.458 7      -520.559          47.800    22706630.600    92979901.748 6      -405.629          41.600                                                                                                                                  
G28  22668125.500   119121812.524 7      2506.247          46.700    22668125.840    92822194.034 6      1952.920          40.050                                                                                                                                  
G30  21345424.100   112170964.474 8     -1172.785          49.000    21345427.400    87405951.320 8      -913.859          48.650    21345428.220    87405929.069 7      -913.859          47.900    21345428.340    83764040.490 8      -875.772          53.400  
R05  24079453.860                        2232.022          31.500                                                                    24079458.000                        1736.018          26.650  
R09  20308168.800   108444446.976 8     -2891.305          51.250    20308172.280    84345682.260 7     -2248.794          47.800    20308172.400    84345690.508 7     -2248.794          46.750  
R10  19337947.620   103082134.547 8       857.192          49.300                                                                                                                                  
R20  20838083.520   111430574.655 6     -2358.197          37.850    20838088.660    86668221.604 7     -1834.153          45.900    20838087.680    86668222.844 7     -1834.153          45.700  
R21  21024736.560   112507620.330 8       682.088          49.250    21024739.420    87505971.426 7       530.516          46.350    21024739.400    87505949.671 7       530.516          45.650  
E01  27695822.680   145542538.745 7      2650.875          44.300    27695827.140   111519617.44815      2031.258          30.900    27695829.040   108684396.720 7      1979.701          43.400  
E13  23635032.020   124202933.616 8     -1290.169          50.650    23635034.780    95168481.182 6      -988.513          40.150    23635036.800    92748940.071 8      -963.365          51.750  
E15  26946412.140   141604330.222 7     -2512.551          44.550                                                                    26946420.460   105743445.881 7     -1876.156          42.350  
E21  23967485.080   125949996.709 8      1365.840          50.900    23967488.620    96507135.523 6      1046.645          40.600    23967490.400    94053577.883 8      1019.947          51.600  
E26  24047517.720   126370583.155 8      1121.136          49.700    24047522.920    96829416.097 6       859.073          38.700    24047524.860    94367650.239 8       837.202          49.900  
E27  24049985.280   126383472.732 8     -1166.369          51.000    24049989.620    96839289.309 6      -893.646          39.850    24049991.780    94377254.941 8      -871.020          51.350  
C01  37373440.600   194613306.115 7         6.467          47.150                                                                  
C02  37116558.040   193275647.989 7        23.421          43.000                                                                  
C03  36383511.740   189458483.380 7        37.058          47.300    36383509.720   146501323.868 5        28.589          35.850  
C04  38344194.720   199668276.786 7         9.064          43.450                                                                  
C05  39259153.360   204432696.264 6        24.558          40.700                                                                  
C07  36035686.520   187647266.273 7       505.390          47.400    36035682.720   145100746.951 6       390.805          36.650  
C08  36442781.400   189767121.391 7       419.905          46.700    36442778.280   146739951.029 6       324.646          36.750  
C09  39531964.020   205853301.446 6     -1474.605          40.850    39531967.480                       -1140.173          28.900  
C10  36599157.260   190581410.603 7       680.647          45.300    36599156.500   147369607.587 5       526.334          35.450  
C11  22747989.300   118454738.336 7     -1295.269          47.300    22747989.040    91596718.333 6     -1001.641          38.200  
C13  36899918.620   192147553.282 7       768.008          47.350    36899923.720   148580697.415 5       593.977          34.050  
C14  25246026.340   131462684.761 6      2173.286          41.900    25246027.080   101655286.403 5      1680.651          30.250  
C23  23213634.680   120879497.217 8      1527.361          49.650                                                                  
C24  25677632.740   133710159.803 7     -3225.070          47.050                                                                  
C25  22266455.000   115947257.644 8     -1427.392          50.350                                                                  
C28  24869689.280   129502996.359 7      1403.378          46.100                                                                  
> 2021 06 10 03 36 17.0000000  0 39                     
G01  21028595.200   110506004.121 8     -2588.297          48.700    21028598.720    86108581.501 8     -2016.859          48.600    21028598.800    86108585.257 8     -2016.858          48.300    21028598.300    82520732.119 8     -1932.779          51.950  
G03  22174793.760   116529338.172 8      1461.133          48.750    22174798.460    90802107.562 8      1138.545          49.050    22174799.300    90802111.314 7      1138.545          46.750    22174799.260    87018708.955 8      1091.116          50.050  
G06  23968678.120   125956266.081 7      3150.263          42.950    23968684.900    98147747.510 7      2454.746          43.050    23968685.800    98147747.268 7      2454.745          42.200    23968686.060    94058258.194 7      2352.510          45.250  
G07  22052514.500   115886711.096 8     -3002.257          49.050    22052516.960    90301312.215 8     -2339.424          49.050    22052517.360    90301328.970 7     -2339.424          43.150                                                                  
G08  24996110.120   131355414.786 6     -1837.180          40.650    24996117.220   102354898.485 5     -1431.583          35.650    24996117.720   102354860.263 6     -1431.580          39.900    24996117.320    98090014.170 7     -1371.767          42.650  
G14  21240363.200   111618861.169 7      2124.058          47.800    21240364.180    86975758.123 7      1655.106          45.750    21240364.640    86975741.874 8      1655.105          49.250    21240368.360    83351771.367 8      1586.232          52.200  
G17  22329295.120   117341242.187 7       557.306          47.750    22329296.140    91434752.257 8       434.262          48.200    22329296.580    91434742.009 7       434.262          45.100                                                                  
G19  23576554.360   123895633.900 7      1607.265          44.150    23576555.000    96542057.113 6      1252.414          40.200                                                                                                                                  
G21  23763908.980   124880147.995 7     -3169.605          46.300    23763910.000    97309177.373 6     -2469.826          39.350                                                                                                                                  
G22  22706730.220   119324673.730 7      -520.243          47.850    22706729.600    92980307.150 7      -405.387          43.200                                                                                                                                  
G28  22667648.500   119119305.940 7      2506.800          47.000    22667648.860    92820240.846 6      1953.349          40.600                                                                                                                                  
G30  21345647.260   112172137.177 8     -1172.834          49.150    21345650.540    87406865.107 8      -913.900          48.900    21345651.360    87406842.855 8      -913.901          48.550    21345651.500    83764916.200 8      -875.707          52.900  
R05  24079031.960                        2233.390          31.000    24079042.180                        1737.081          28.050    24079041.480                        1737.081          27.600  
R09  20308710.220   108447338.160 8     -2891.171          51.250    20308713.700    84347930.955 8     -2248.691          48.600    20308713.820    84347939.201 7     -2248.693          47.650  
R10  19337786.820   103081277.441 8       856.983          49.500                                                                                                                                  
R20  20838524.460   111432932.399 6     -2357.420          38.050    20838529.580    86670055.397 7     -1833.553          46.700    20838528.580    86670056.639 7     -1833.552          46.400  
R21  21024609.080   112506938.118 8       682.258          49.200    21024611.920    87505440.813 7       530.645          47.050    21024611.920    87505419.058 7       530.644          46.350  
E01  27695318.140   145539887.382 7      2651.801          44.300    27695322.760   111517585.890 4      2031.813          29.500    27695324.520   108682416.821 7      1980.083          42.950  
E13  23635277.460   124204223.446 8     -1289.569          50.700    23635280.220    95169469.496 6      -988.175          39.400    23635282.260    92749903.266 8      -963.078          51.150  
E15  26946890.200   141606842.405 7     -2511.778          44.800                                                                    26946898.520   105745321.899 7     -1875.938          42.000  
E21  23967225.120   125948630.625 8      1366.139          50.900    23967228.660    96506088.783 6      1046.884          39.700    23967230.440    94052557.752 8      1020.221          50.950  
E26  24047304.340   126369461.869 8      1121.477          49.700    24047309.540    96828556.936 6       859.106          37.900    24047311.480    94366812.921 8       837.349          49.350  
E27  24050207.200   126384638.950 8     -1166.117          51.000    24050211.540    96840182.909 6      -893.530          39.300    24050213.700    94378125.814 8      -870.771          50.750  
C01  37373439.300   194613299.270 7         7.237          47.200                                                                  
C02  37116553.420   193275623.957 7        24.324          42.900                                                                  
C03  36383504.580   189458446.133 7        37.635          47.350    36383502.540   146501295.062 5        29.064          35.050  
C04  38344192.940   199668267.473 7         9.657          43.550                                                                  
C05  39259148.560   204432671.292 6        25.271          40.600                                                                  
C07  36035589.420   187646760.626 7       505.868          47.350    36035585.620   145100355.949 5       391.255          35.950  
C08  36442700.700   189766701.225 7       420.306          46.750    36442697.580   146739626.114 5       325.164          35.850  
C09  39532247.080   205854775.430 6     -1473.843          40.800    39532252.060                       -1139.606          27.300  
C10  36599026.500   190580729.681 7       681.170          45.200    36599025.740   147369081.054 5       526.798          34.450  
C11  22748237.960   118456033.236 7     -1294.577          47.150    22748237.700    91597719.642 6     -1000.979          37.300  
C13  36899771.060   192146784.953 7       768.485          47.350    36899776.160   148580103.305 5       594.263          33.200  
C14  25245608.860   131460510.849 6      2174.319          41.950    25245609.600   101653605.420 4      1681.256          28.900  
C23  23213341.340   120877969.742 8      1527.435          49.700                                                                  
C24  25678252.000   133713384.468 7     -3224.531          46.850                                                                  
C25  22266729.080   115948684.869 8     -1427.213          50.400                                                                  
C28  24869419.740   129501592.812 7      1403.711          46.050                                                                  
> 2021 06 10 03 36 18.0000000  0 39                     
G01  21029087.820   110508592.899 8     -2588.920          48.750    21029091.340    86110598.710 8     -2017.348          48.800    21029091.420    86110602.466 8     -2017.348          48.550    21029090.920    82522665.298 8     -1933.297          52.050  
G03  22174515.820   116527877.558 8      1460.407          48.650    22174520.520    90800969.403 8      1137.975          48.950    22174521.360    90800973.155 7      1137.976          47.100    22174521.300    87017618.243 8      1090.571          50.250  
G06  23968078.700   125953116.194 7      3149.849          42.700    23968085.480    98145293.032 7      2454.420          42.600    23968086.400    98145292.786 7      2454.419          42.250    23968086.660    94055906.018 7      2352.087          45.400  
G07  22053085.880   115889713.713 8     -3002.758          48.850    22053088.320    90303651.890 8     -2339.818          48.550    22053088.740    90303668.649 7     -2339.818          43.350                                                                  
G08  24996459.760   131357252.098 6     -1837.245          40.650    24996466.860   102356330.128 6     -1431.634          36.200    24996467.360   102356291.905 6     -1431.635          39.950    24996466.980    98091386.181 7     -1371.977          42.600  
G14  21239959.060   111616737.447 8      2123.775          48.000    21239960.040    86974103.252 7      1654.883          45.050    21239960.500    86974087.001 8      1654.882          49.500    21239964.240    83350185.478 8      1585.869          52.350  
G17  22329189.120   117340685.182 7       557.154          47.400    22329190.140    91434318.200 7       434.139          47.350    22329190.580    91434307.952 7       434.139          45.600                                                                  
G19  23576248.540   123894026.837 7      1607.031          44.100    23576249.200    96540804.831 6      1252.228          40.800                                                                                                                                  
G21  23764512.160   124883317.782 7     -3169.793          46.550    23764513.180    97311647.309 6     -2469.976          38.600                                                                                                                                  
G22  22706829.320   119325194.601 7      -520.895          47.800    22706828.700    92980713.000 7      -405.897          42.750                                                                                                                                  
G28  22667171.520   119116799.422 7      2506.586          46.950    22667171.880    92818287.690 6      1953.178          40.300                                                                                                                                  
G30  21345870.520   112173310.429 8     -1173.512          49.150    21345873.800    87407779.305 8      -914.433          49.150    21345874.640    87407757.053 8      -914.433          48.750    21345874.780    83765792.339 8      -876.322          52.950  
R05  24078613.300                        2233.093          33.050    24078627.860                        1736.850          30.050    24078624.780                        1736.849          27.550  
R09  20309251.760   108450230.013 8     -2892.064          51.100    20309255.240    84350180.149 8     -2249.391          48.800    20309255.360    84350188.397 7     -2249.391          47.700  
R10  19337626.180   103080421.198 8       855.935          49.250                                                                                                                                  
R20  20838965.440   111435290.327 6     -2357.908          38.200    20838970.520    86671889.318 7     -1833.937          46.850    20838969.520    86671890.562 7     -1833.936          46.600  
R21  21024481.660   112506256.332 8       681.618          49.000    21024484.520    87504910.512 7       530.144          47.000    21024484.500    87504888.760 7       530.143          46.450  
E01  27694813.620   145537236.062 7      2651.304          44.300    27694818.280   111515554.359 5      2031.543          31.200    27694819.980   108680436.923 7      1980.008          43.050  
E13  23635522.960   124205513.539 8     -1290.046          50.600    23635525.720    95170458.004 6      -988.519          40.400    23635527.760    92750866.647 8      -963.423          51.300  
E15  26947368.240   141609354.580 7     -2512.075          45.000                                                                    26947376.560   105747197.868 7     -1875.943          42.350  
E21  23966965.220   125947264.847 8      1365.726          50.900    23966968.760    96505042.274 6      1046.514          40.900    23966970.540    94051537.859 8      1019.795          51.100  
E26  24047091.040   126368340.936 8      1120.886          49.650    24047096.220    96827698.029 6       858.903          39.050    24047098.180    94365975.855 8       836.991          49.450  
E27  24050429.200   126385805.563 8     -1166.710          51.000    24050433.540    96841076.809 6      -894.139          40.200    24050435.700    94378996.990 8      -871.339          50.950  
C01  37373437.980   194613292.449 7         7.062          47.150                                                                  
C02  37116548.800   193275599.959 7        23.899          43.000                                                                  
C03  36383497.440   189458408.896 7        37.466          47.200    36383495.380   146501266.276 6        28.860          36.100  
C04  38344191.140   199668258.173 7         9.406          43.500                                                                  
C05  39259143.780   204432646.375 6        25.020          40.950                                                                  
C07  36035492.340   187646255.030 7       505.729          47.550    36035488.520   145099965.002 6       390.923          37.100  
C08  36442620.060   189766281.243 7       420.026          46.850    36442616.940   146739301.376 6       324.763          37.050  
C09  39532530.140   205856249.330 6     -1473.717          40.650    39532533.100                       -1139.590          28.750  
C10  36598895.740   190580048.758 7       681.149          45.100    36598894.980   147368554.542 5       526.417          35.700  
C11  22748486.660   118457328.235 7     -1294.968          47.000    22748486.400    91598721.018 6     -1001.483          38.400  
C13  36899623.540   192146016.783 7       768.380          47.350    36899628.640   148579509.313 5       594.037          34.200  
C14  25245191.360   131458336.864 7      2174.165          42.250    25245192.100   101651924.351 5      1681.119          30.550  
C23  23213048.100   120876442.741 8      1526.938          49.650                                                                  
C24  25678871.300   133716609.224 7     -3224.775          46.950                                                                  
C25  22267003.260   115950112.596 8     -1427.952          50.550                                                                  
C28  24869150.240   129500189.471 7      1403.179          46.050                                                                  
> 2021 06 10 03 36 19.0000000  0 39                     
G01  21029580.540   110511182.155 8     -2589.222          48.850    21029584.060    86112616.299 8     -2017.582          48.850    21029584.140    86112620.052 8     -2017.584          48.700    21029583.640    82524598.831 8     -1933.537          52.250  
G03  22174237.980   116526417.510 8      1460.079          48.550    22174242.660    90799831.688 8      1137.719          48.350    22174243.520    90799835.441 7      1137.718          47.400    22174243.460    87016527.945 8      1090.295          50.350  
G06  23967479.360   125949966.689 7      3149.561          42.950    23967486.140    98142838.856 7      2454.196          43.000    23967487.060    98142838.611 7      2454.196          43.000    23967487.320    94053554.104 7      2352.011          45.550  
G07  22053657.340   115892716.658 8     -3002.668          48.750    22053659.760    90305991.835 8     -2339.750          48.450    22053660.180    90306008.592 7     -2339.749          43.850                                                                  
G08  24996809.400   131359089.466 6     -1837.014          40.550    24996816.480   102357761.825 5     -1431.451          35.100    24996816.980   102357723.595 6     -1431.454          39.950    24996816.620    98092758.224 7     -1371.906          42.600  
G14  21239555.000   111614614.094 8      2123.459          48.150    21239555.980    86972448.675 7      1654.636          46.150    21239556.440    86972432.426 8      1654.636          49.900    21239560.180    83348599.852 8      1585.683          52.600  
G17  22329083.160   117340128.330 7       557.125          47.600    22329084.180    91433884.277 7       434.115          47.600    22329084.620    91433874.027 7       434.114          45.850                                                                  
G19  23575942.760   123892419.960 7      1607.069          44.400    23575943.420    96539552.703 6      1252.257          40.750                                                                                                                                  
G21  23765115.380   124886487.685 7     -3169.678          46.700    23765116.380    97314117.355 6     -2469.885          40.150                                                                                                                                  
G22  22706928.560   119325716.153 7      -521.687          47.800    22706927.960    92981119.393 7      -406.516          43.200                                                                                                                                  
G28  22666694.560   119114293.028 7      2506.577          46.850    22666694.900    92816334.641 6      1953.169          40.400                                                                                                                                  
G30  21346093.920   112174484.344 8     -1173.931          49.300    21346097.200    87408694.033 8      -914.760          49.450    21346098.020    87408671.781 8      -914.760          48.850    21346098.160    83766668.960 8      -876.693          53.200  
R05  24078197.060   128711756.74115      2232.310          33.800    24078205.260                        1736.241          27.600    24078206.340   100109156.45614      1736.241          28.050  
R09  20309793.460   108453122.602 8     -2892.594          51.050    20309796.940    84352429.928 8     -2249.804          48.550    20309797.060    84352438.176 7     -2249.804          47.350  
R10  19337465.740   103079565.912 8       855.034          49.100                                                                                                                                  
R20  20839406.440   111437648.521 6     -2357.983          37.800    20839411.500    86673723.456 7     -1833.995          46.550    20839410.520    86673724.702 7     -1833.994          46.300  
R21  21024354.360   112505575.095 8       681.161          49.000    21024357.200    87504380.648 7       529.787          46.800    21024357.180    87504358.896 7       529.788          46.000  
E01  27694309.120   145534584.839 7      2651.547          44.500    27694313.680   111513523.90115      2031.360          30.750    27694315.480   108678457.121 7      1979.935          43.300  
E13  23635768.500   124206803.971 8     -1290.364          50.550    23635771.280    95171446.775 6      -988.645          40.000    23635773.320    92751830.271 8      -963.548          51.600  
E15  26947846.320   141611866.800 7     -2511.971          45.200                                                                    26947854.620   105749073.874 7     -1875.966          42.700  
E21  23966705.400   125945899.465 8      1365.495          50.900    23966708.960    96503996.072 6      1046.270          40.350    23966710.720    94050518.248 8      1019.656          51.350  
E26  24046877.820   126367220.434 8      1120.540          49.750    24046883.000    96826839.457 6       858.668          38.650    24046884.940    94365139.110 8       836.812          49.650  
E27  24050651.280   126386972.638 8     -1167.040          50.900    24050655.620    96841971.053 6      -894.266          39.650    24050657.780    94379868.505 8      -871.545          51.100  
C01  37373436.680   194613285.742 7         6.999          47.200                                                                  
C02  37116544.220   193275576.053 7        24.056          43.100                                                                  
C03  36383490.300   189458371.789 7        37.193          47.350    36383488.300   146501237.565 5        28.931          35.700  
C04  38344189.380   199668249.011 7         9.330          43.600                                                                  
C05  39259139.020   204432621.542 6        24.872          41.050                                                                  
C07  36035395.260   187645749.590 7       505.652          47.550    36035391.460   145099574.164 6       390.885          36.650  
C08  36442539.460   189765861.575 7       419.934          46.950    36442536.320   146738976.843 6       324.747          36.600  
C09  39532813.200   205857723.250 6     -1473.802          40.850    39532813.480                       -1139.709          28.150  
C10  36598765.000   190579367.940 7       681.021          45.350    36598764.220   147368028.070 5       526.564          35.100  
C11  22748735.380   118458623.373 7     -1294.850          47.150    22748735.120    91599722.496 6     -1001.398          37.950  
C13  36899476.080   192145248.922 7       767.922          47.550    36899481.200   148578915.545 5       593.906          33.750  
C14  25244773.880   131456162.881 7      2174.134          42.200    25244774.660   101650243.291 4      1681.090          29.650  
C23  23212754.960   120874916.308 8      1526.276          49.800                                                                  
C24  25679490.600   133719834.173 7     -3224.710          47.200                                                                  
C25  22267277.560   115951540.904 8     -1428.276          50.700                                                                  
C28  24868880.800   129498786.418 7      1403.137          46.250                                                                  
> 2021 06 10 03 36 20.0000000  0 39                     
G01  21030073.280   110513771.566 8     -2589.666          48.650    21030076.820    86114634.032 8     -2017.923          48.700    21030076.900    86114637.787 8     -2017.924          48.100    21030076.400    82526532.474 8     -1933.767          52.450  
G03  22173960.180   116524957.690 8      1459.558          48.200    22173964.880    90798694.183 8      1137.317          48.400    22173965.740    90798697.935 7      1137.316          46.850    22173965.660    87015437.822 8      1089.979          50.550  
G06  23966880.040   125946817.217 7      3149.277          42.900    23966886.820    98140384.738 7      2453.981          42.100    23966887.740    98140384.492 7      2453.980          42.650    23966888.000    94051202.224 7      2351.846          45.850  
G07  22054228.780   115895719.654 8     -3003.118          48.750    22054231.200    90308331.843 8     -2340.095          48.750    22054231.620    90308348.601 7     -2340.094          43.100                                                                  
G08  24997158.960   131360926.514 6     -1837.078          40.150    24997166.060   102359193.311 6     -1431.496          36.500    24997166.540   102359155.065 6     -1431.499          38.900    24997166.200    98094130.028 7     -1371.729          42.650  
G14  21239150.940   111612490.755 8      2123.176          48.100    21239151.920    86970794.137 7      1654.421          45.250    21239152.380    86970777.887 8      1654.420          49.250    21239156.120    83347014.238 8      1585.538          52.750  
G17  22328977.140   117339571.257 7       557.100          47.350    22328978.180    91433450.208 7       434.101          47.400    22328978.620    91433439.958 7       434.100          45.200                                                                  
G19  23575636.940   123890812.949 7      1607.245          43.900    23575637.600    96538300.497 6      1252.399          40.600                                                                                                                                  
G21  23765718.560   124889657.352 7     -3169.746          46.300    23765719.560    97316587.233 6     -2469.934          38.600                                                                                                                                  
G22  22707027.860   119326238.009 7      -522.143          47.700    22707027.280    92981526.047 6      -406.865          41.850                                                                                                                                  
G28  22666217.580   119111786.415 7      2506.709          46.850    22666217.900    92814381.449 6      1953.276          40.800                                                                                                                                  
G30  21346317.360   112175658.563 8     -1174.317          48.950    21346320.660    87409609.024 8      -915.055          49.050    21346321.480    87409586.770 8      -915.055          48.400    21346321.600    83767545.812 8      -877.006          53.300  
R05  24077780.020   128709524.173 5      2232.273          31.850    24077790.640                        1736.210          29.800    24077788.340   100107420.035 4      1736.219          27.750  
R09  20310335.220   108456015.567 8     -2893.215          50.900    20310338.700    84354680.025 8     -2250.282          48.650    20310338.800    84354688.268 7     -2250.281          47.500  
R10  19337305.380   103078711.228 8       854.306          48.900                                                                                                                                  
R20  20839847.420   111440006.607 6     -2357.973          37.600    20839852.480    86675557.533 7     -1833.980          46.550    20839851.500    86675558.778 7     -1833.979          46.350  
R21  21024227.080   112504894.080 8       680.762          48.950    21024229.960    87503850.982 7       529.481          46.850    21024229.920    87503829.232 7       529.481          46.150  
E01  27693804.560   145531933.382 7      2651.542          44.200    27693809.080   111511492.273 5      2031.465          31.000    27693810.920   108676477.135 7      1979.964          43.350  
E13  23636014.060   124208094.384 8     -1290.486          50.350    23636016.840    95172435.533 6      -988.981          40.150    23636018.880    92752793.892 8      -963.698          51.750  
E15  26948324.320   141614378.717 7     -2511.844          45.100                                                                    26948332.600   105750949.655 7     -1875.746          42.900  
E21  23966445.580   125944534.118 8      1365.362          50.700    23966449.140    96502949.909 6      1046.065          40.650    23966450.900    94049498.680 8      1019.455          51.450  
E26  24046664.600   126366100.015 8      1120.236          49.600    24046669.780    96825980.944 6       858.492          38.850    24046671.740    94364302.442 8       836.543          49.850  
E27  24050873.400   126388139.850 8     -1167.459          50.750    24050877.740    96842865.400 6      -894.444          39.850    24050879.900    94380740.112 8      -871.692          51.300  
C01  37373435.340   194613278.798 7         6.808          47.100                                                                  
C02  37116539.580   193275551.930 7        24.139          42.850                                                                  
C03  36383483.140   189458334.427 7        37.426          47.150    36383481.100   146501208.690 5        28.820          35.800  
C04  38344187.560   199668239.580 7         9.586          43.400                                                                  
C05  39259134.200   204432596.480 6        25.040          40.850                                                                  
C07  36035298.160   187645243.962 7       505.657          47.300    36035294.360   145099183.180 6       390.813          36.750  
C08  36442458.860   189765441.846 7       419.554          46.750    36442455.700   146738652.293 6       324.469          36.750  
C09  39533096.180   205859196.828 6     -1473.304          41.000    39533096.040                       -1139.459          27.950  
C10  36598634.200   190578686.864 7       681.172          45.200    36598633.420   147367501.414 5       526.765          35.450  
C11  22748984.060   118459918.325 7     -1295.027          47.000    22748983.820    91600723.833 6     -1001.428          38.300  
C13  36899328.600   192144480.966 7       767.856          47.500    36899333.720   148578321.728 5       593.609          34.150  
C14  25244356.320   131453988.552 7      2174.158          42.350    25244357.080   101648561.950 4      1681.370          29.850  
C23  23212461.880   120873390.085 8      1526.062          49.700                                                                  
C24  25680109.900   133723058.976 7     -3224.741          47.200                                                                  
C25  22267551.880   115952969.459 8     -1428.761          50.550                                                                  
C28  24868611.340   129497383.334 7      1403.131          46.000                                                                  
> 2021 06 10 03 36 21.0000000  0 39                     
G01  21030566.120   110516361.420 8     -2590.171          48.750    21030569.660    86116652.113 8     -2018.313          49.000    21030569.740    86116655.868 8     -2018.314          48.600    21030569.240    82528466.458 8     -1934.185          52.650  
G03  22173682.480   116523498.390 8      1458.959          48.450    22173687.180    90797557.082 8      1136.854          48.850    22173688.040    90797560.835 7      1136.854          47.050    22173687.940    87014348.089 8      1089.512          50.700  
G06  23966280.800   125943668.074 7      3148.950          43.150    23966287.560    98137930.871 7      2453.729          42.850    23966288.480    98137930.627 7      2453.729          43.000    23966288.740    94048850.588 7      2351.532          45.950  
G07  22054800.300   115898722.972 8     -3003.748          48.750    22054802.720    90310672.100 8     -2340.583          48.600    22054803.160    90310688.859 7     -2340.581          43.600                                                                  
G08  24997508.560   131362763.545 6     -1837.294          40.200    24997515.660   102360624.767 5     -1431.660          35.450    24997516.140   102360586.524 6     -1431.663          39.450    24997515.800    98095501.835 7     -1371.924          42.750  
G14  21238746.940   111610367.724 8      2122.808          48.300    21238747.920    86969139.841 7      1654.137          45.600    21238748.380    86969123.588 8      1654.137          49.700    21238752.120    83345428.859 8      1585.178          52.900  
G17  22328871.160   117339014.307 7       556.792          47.400    22328872.200    91433016.236 7       433.865          47.650    22328872.640    91433005.986 7       433.864          45.700                                                                  
G19  23575331.180   123889206.111 7      1606.673          44.200    23575331.820    96537048.434 6      1251.956          40.000                                                                                                                                  
G21  23766321.740   124892827.108 7     -3169.949          46.050    23766322.740    97319057.187 6     -2470.088          40.100                                                                                                                                  
G22  22707127.280   119326760.502 7      -522.773          47.750    22707126.700    92981933.198 6      -407.353          41.950                                                                                                                                  
G28  22665740.600   119109279.931 7      2506.362          47.100    22665740.940    92812428.359 6      1953.010          39.900                                                                                                                                  
G30  21346540.920   112176833.410 8     -1175.082          49.100    21346544.220    87410524.501 8      -915.647          49.100    21346545.060    87410502.247 8      -915.647          48.950    21346545.180    83768423.131 8      -877.609          53.550  
R05  24077363.040   128707291.722 5      2233.031          30.500    24077370.340   100105698.42714      1736.794          28.150    24077371.100   100105683.691 4      1736.808          27.000  
R09  20310877.120   108458909.245 8     -2894.097          51.100    20310880.600    84356930.672 8     -2250.965          49.000    20310880.700    84356938.913 7     -2250.965          47.800  
R10  19337145.220   103077857.472 8       853.303          49.200                                                                                                                                  
R20  20840288.440   111442364.941 6     -2358.615          37.750    20840293.500    86677391.802 7     -1834.479          46.700    20840292.520    86677393.051 7     -1834.478          46.650  
R21  21024099.920   112504213.650 8       680.075          49.300    21024102.800    87503321.770 7       528.949          47.100    21024102.780    87503300.019 7       528.950          46.550  
E01  27693300.020   145529282.001 7      2651.367          44.350    27693304.520   111509460.681 5      2031.572          31.050    27693306.380   108674497.212 7      1979.729          43.700  
E13  23636259.660   124209385.087 8     -1290.852          50.550    23636262.440    95173424.509 6      -989.043          40.250    23636264.480    92753757.732 8      -964.044          51.950  
E15  26948802.320   141616890.666 7     -2512.088          45.200    26948808.320   108511658.343 5     -1924.793          32.050    26948810.600   105752825.451 7     -1875.765          43.300  
E21  23966185.840   125943169.149 8      1364.803          50.950    23966189.380    96501904.007 6      1045.801          40.650    23966191.160    94048479.375 8      1019.106          51.750  
E26  24046451.480   126364979.989 8      1119.773          49.700    24046456.660    96825122.748 6       858.134          38.950    24046458.600    94363466.049 8       836.232          50.000  
E27  24051095.600   126389307.490 8     -1167.961          50.950    24051099.940    96843760.090 6      -894.905          40.100    24051102.080    94381612.053 8      -872.192          51.550  
C01  37373434.020   194613271.916 7         6.819          47.400                                                                  
C02  37116534.980   193275527.873 7        23.984          43.200                                                                  
C03  36383475.980   189458297.150 7        37.113          47.500    36383473.900   146501179.852 5        28.698          35.950  
C04  38344185.780   199668230.244 7         9.183          44.000                                                                  
C05  39259129.400   204432571.469 6        25.049          41.150                                                                  
C07  36035201.080   187644738.436 7       505.410          47.600    36035197.280   145098792.263 6       390.898          36.800  
C08  36442378.300   189765022.356 7       419.403          47.050    36442375.120   146738327.925 6       324.250          36.750  
C09  39533379.160   205860670.386 6     -1473.346          41.050    39533379.400                       -1139.521          28.300  
C10  36598503.420   190578005.868 7       681.010          45.600    36598502.660   147366974.838 5       526.384          35.500  
C11  22749232.760   118461213.400 7     -1295.287          47.200    22749232.500    91601725.245 6     -1001.456          38.300  
C13  36899181.160   192143713.236 7       767.618          47.750    36899186.280   148577728.072 5       593.396          34.100  
C14  25243938.760   131451814.182 7      2174.159          42.650    25243939.540   101646880.577 5      1681.263          30.250  
C23  23212168.880   120871864.407 8      1525.427          49.850                                                                  
C24  25680729.240   133726283.932 7     -3225.239          47.400                                                                  
C25  22267826.320   115954398.555 8     -1429.422          50.750                                                                  
C28  24868341.940   129495980.503 7      1402.563          46.550                                                                  
> 2021 06 10 03 36 22.0000000  0 39                     
G01  21031059.000   110518951.601 8     -2590.466          48.650    21031062.560    86118670.446 8     -2018.543          48.800    21031062.640    86118674.199 8     -2018.543          48.650    21031062.140    82530400.682 8     -1934.381          52.250  
G03  22173404.860   116522039.506 8      1458.538          48.700    22173409.560    90796420.299 8      1136.527          48.700    22173410.420    90796424.052 7      1136.527          47.200    22173410.320    87013258.660 8      1089.229          50.300  
G06  23965681.580   125940519.157 7      3148.478          43.000    23965688.340    98135477.181 7      2453.361          42.100    23965689.260    98135476.935 7      2453.360          43.050    23965689.520    94046499.122 7      2351.293          45.600  
G07  22055371.840   115901726.467 8     -3003.832          48.950    22055374.280    90313012.495 8     -2340.647          48.950    22055374.700    90313029.255 7     -2340.647          43.600                                                                  
G08  24997858.120   131364600.477 6     -1836.908          40.500    24997865.160   102362056.156 5     -1431.356          35.650    24997865.680   102362017.910 6     -1431.362          39.150    24997865.360    98096873.546 7     -1371.580          42.050  
G14  21238342.980   111608244.886 8      2122.716          48.250    21238343.960    86967485.691 7      1654.064          45.700    21238344.420    86967469.440 8      1654.064          49.650    21238348.160    83343843.629 8      1585.071          52.450  
G17  22328765.180   117338457.310 7       556.973          47.250    22328766.200    91432582.220 7       434.008          46.900    22328766.660    91432571.975 7       434.008          45.350                                                                  
G19  23575025.400   123887599.282 7      1606.654          44.050    23575026.060    96535796.365 6      1251.940          39.350                                                                                                                                  
G21  23766924.920   124895996.795 7     -3170.008          46.550    23766925.920    97321527.086 6     -2470.135          39.450                                                                                                                                  
G22  22707226.800   119327283.501 7      -523.312          47.750    22707226.240    92982340.745 7      -407.772          42.600                                                                                                                                  
G28  22665263.620   119106773.413 7      2506.412          47.150    22665263.960    92810475.238 6      1953.051          40.650                                                                                                                                  
G30  21346764.600   112178008.757 8     -1175.741          49.050    21346767.880    87411440.362 8      -916.161          49.000    21346768.720    87411418.110 8      -916.161          49.000    21346768.840    83769300.815 8      -877.946          53.100  
R05  24076944.180                        2232.165          31.050    24076952.220   100103962.253 5      1736.126          30.550    24076953.000   100103947.532 4      1736.138          26.800  
R09  20311419.120   108461803.527 8     -2894.743          51.250    20311422.600    84359181.784 8     -2251.467          49.150    20311422.720    84359190.028 7     -2251.468          47.850  
R10  19336985.180   103077004.507 8       852.358          49.450                                                                                                                                  
R20  20840729.500   111444723.324 6     -2358.382          37.650    20840734.540    86679226.106 7     -1834.298          46.800    20840733.540    86679227.355 7     -1834.297          46.800  
R21  21023972.840   112503533.633 8       679.767          49.550    21023975.720    87502792.878 7       528.709          47.350    21023975.700    87502771.131 7       528.710          46.650  
E01  27692795.480   145526630.557 7      2651.391          44.100    27692799.880   111507428.04715      2031.898          30.750    27692801.840   108672517.235 7      1979.929          43.150  
E13  23636505.320   124210675.968 8     -1291.065          50.450    23636508.080    95174413.627 6      -989.246          40.050    23636510.140    92754721.697 8      -964.098          51.500  
E15  26949280.320   141619402.497 7     -2512.013          45.400    26949287.360   108513582.996 5     -1924.810          32.200    26949288.580   105754701.173 7     -1875.746          42.950  
E21  23965926.140   125941804.397 8      1364.590          50.950    23965929.700    96500858.299 6      1045.525          40.350    23965931.440    94047460.242 8      1018.985          51.300  
E26  24046238.400   126363860.227 8      1119.515          49.800    24046243.560    96824264.747 6       857.937          38.650    24046245.520    94362629.867 8       836.037          49.550  
E27  24051317.840   126390475.432 8     -1168.146          50.900    24051322.180    96844655.006 6      -894.982          39.800    24051324.340    94382484.220 8      -872.378          51.050  
C01  37373432.680   194613264.975 7         6.993          47.400                                                                  
C02  37116530.340   193275503.750 7        23.983          43.000                                                                  
C03  36383468.800   189458259.807 7        37.167          47.500    36383466.740   146501150.981 5        28.779          35.850  
C04  38344183.980   199668220.850 7         9.290          43.700                                                                  
C05  39259124.600   204432546.425 6        24.885          41.250                                                                  
C07  36035104.000   187644232.896 7       505.471          47.400    36035100.180   145098401.344 6       390.930          36.400  
C08  36442297.760   189764603.023 7       419.146          46.850    36442294.600   146738003.660 6       324.204          36.600  
C09  39533662.120   205862143.818 6     -1473.563          40.750    39533664.800   159185674.62714     -1139.192          28.000  
C10  36598372.640   190577324.811 7       681.147          45.400    36598371.860   147366448.191 5       526.724          35.200  
C11  22749481.460   118462508.441 7     -1295.085          47.000    22749481.200    91602726.669 6     -1001.604          38.050  
C13  36899033.740   192142945.628 7       767.429          47.550    36899038.860   148577134.501 5       593.319          33.850  
C14  25243521.160   131449639.626 7      2174.572          42.600    25243522.000   101645199.115 4      1681.377          29.750  
C23  23211875.980   120870339.126 8      1525.024          49.750                                                                  
C24  25681348.560   133729508.902 7     -3225.145          47.300                                                                  
C25  22268100.840   115955828.069 8     -1429.822          50.700                                                                  
C28  24868072.580   129494577.796 7      1402.691          46.550                                                                  
> 2021 06 10 03 36 23.0000000  0 39                     
G01  21031552.000   110521542.315 8     -2590.792          48.600    21031555.560    86120689.186 8     -2018.796          48.550    21031555.620    86120692.943 8     -2018.796          49.050    21031555.140    82532335.312 8     -1934.737          52.550  
G03  22173127.360   116520581.247 8      1458.001          48.650    22173132.060    90795284.002 8      1136.109          48.600    22173132.920    90795287.754 7      1136.109          47.650    22173132.800    87012169.702 8      1088.823          50.600  
G06  23965082.440   125937370.647 7      3148.457          43.300    23965089.200    98133023.797 7      2453.347          43.800    23965090.120    98133023.553 7      2453.346          43.750    23965090.380    94044147.970 7      2351.113          45.700  
G07  22055943.480   115904730.379 8     -3003.861          48.850    22055945.900    90315353.212 8     -2340.669          49.100    22055946.340    90315369.970 7     -2340.668          44.400                                                                  
G08  24998207.720   131366437.517 6     -1837.149          40.100    24998214.780   102363487.622 5     -1431.544          34.850    24998215.260   102363449.365 6     -1431.549          39.950    24998214.940    98098245.364 7     -1371.807          42.250  
G14  21237939.080   111606122.483 8      2122.282          48.050    21237940.080    86965831.870 7      1653.728          46.200    21237940.540    86965815.621 8      1653.729          50.250    21237944.280    83342258.708 8      1584.865          52.750  
G17  22328659.220   117337900.539 7       556.863          47.500    22328660.260    91432148.381 7       433.923          47.500    22328660.720    91432138.133 7       433.923          46.100                                                                  
G19  23574719.680   123885992.739 7      1606.304          43.700    23574720.340    96534544.514 6      1251.668          41.550                                                                                                                                  
G21  23767528.140   124899166.659 7     -3169.805          45.950    23767529.120    97323997.104 6     -2469.976          40.000                                                                                                                                  
G22  22707326.480   119327807.242 7      -524.017          47.600    22707325.920    92982748.852 7      -408.321          43.400                                                                                                                                  
G28  22664786.700   119104267.090 7      2506.285          47.150    22664787.020    92808522.261 6      1952.953          40.650                                                                                                                                  
G30  21346988.400   112179184.802 8     -1176.391          49.000    21346991.680    87412356.763 8      -916.666          48.850    21346992.500    87412334.511 8      -916.666          49.550    21346992.640    83770179.027 8      -878.355          53.350  
R05  24076527.920                        2231.841          31.200    24076533.800   100102226.323 4      1735.877          29.850    24076535.720   100102211.598 4      1735.887          27.000  
R09  20311961.280   108464698.634 8     -2895.473          51.050    20311964.760    84361433.534 8     -2252.034          48.800    20311964.880    84361441.779 7     -2252.034          47.600  
R10  19336825.360   103076152.550 8       851.496          49.350                                                                                                                                  
R20  20841170.620   111447082.074 6     -2359.124          37.650    20841175.640    86681060.691 7     -1834.872          46.450    20841174.640    86681061.939 7     -1834.871          46.500  
R21  21023845.860   112502854.191 8       679.307          49.350    21023848.760    87502264.423 7       528.353          47.050    21023848.740    87502242.674 7       528.354          46.300  
E01  27692290.960   145523979.292 7      2651.134          43.900    27692295.320   111505396.582 4      2031.090          29.900    27692297.320   108670537.385 7      1979.930          43.650  
E13  23636751.020   124211967.238 8     -1291.297          50.350    23636753.800    95175403.038 6      -989.367          39.800    23636755.860    92755685.961 8      -964.323          51.750  
E15  26949758.340   141621914.443 7     -2511.972          45.200    26949765.180   108515507.708 5     -1924.762          31.150    26949766.580   105756576.965 7     -1875.726          43.200  
E21  23965666.520   125940440.106 8      1364.182          50.900    23965670.080    96499812.929 6      1045.264          40.100    23965671.840    94046441.446 8      1018.739          51.550  
E26  24046025.420   126362740.960 8      1119.021          49.650    24046030.580    96823407.135 6       857.454          38.200    24046032.520    94361794.045 8       835.732          49.850  
E27  24051540.200   126391643.913 8     -1168.604          50.750    24051544.540    96845550.334 6      -895.409          39.550    24051546.680    94383356.783 8      -872.650          51.300  
C01  37373431.380   194613258.224 7         6.798          47.350                                                                  
C02  37116525.740   193275479.804 7        23.971          43.100                                                                  
C03  36383461.680   189458222.642 7        37.085          47.300    36383459.600   146501122.239 5        28.792          35.200  
C04  38344182.220   199668211.625 7         9.237          43.250                                                                  
C05  39259119.800   204432521.531 6        25.034          41.250                                                                  
C07  36035006.960   187643727.573 7       505.149          47.500    36035003.120   145098010.594 6       390.765          36.100  
C08  36442217.300   189764184.013 7       418.960          46.800    36442214.120   146737679.657 6       323.935          36.100  
C09  39533945.080   205863617.312 6     -1473.603          40.850                                                                  
C10  36598241.880   190576643.901 7       680.877          45.350    36598241.080   147365921.678 5       526.507          34.900  
C11  22749730.200   118463803.700 7     -1295.309          46.900    22749729.940    91603728.232 6     -1001.480          37.700  
C13  36898886.400   192142178.340 7       767.271          47.400    36898891.500   148576541.178 5       593.213          33.850  
C14  25243103.580   131447465.144 7      2174.431          42.600    25243104.420   101643517.647 4      1681.625          29.350  
C23  23211583.180   120868814.463 8      1524.485          49.700                                                                  
C24  25681967.940   133732734.121 7     -3225.263          47.250                                                                  
C25  22268375.480   115957258.228 8     -1430.381          50.400                                                                  
C28  24867803.260   129493175.462 7      1402.102          46.250                                                                  
> 2021 06 10 03 36 24.0000000  0 39                     
G01  21032045.100   110524133.568 8     -2591.382          48.750    21032048.660    86122708.346 8     -2019.260          48.900    21032048.720    86122712.103 8     -2019.258          48.550    21032048.240    82534270.325 8     -1935.065          52.450  
G03  22172849.960   116519123.565 8      1457.528          48.550    22172854.660    90794148.146 8      1135.739          48.700    22172855.540    90794151.901 7      1135.740          47.100    22172855.400    87011081.178 8      1088.463          50.550  
G06  23964483.360   125934222.571 7      3147.745          43.200    23964490.140    98130570.753 7      2452.788          43.500    23964491.080    98130570.507 7      2452.788          43.250    23964491.320    94041797.118 7      2350.790          45.650  
G07  22056515.180   115907734.706 8     -3004.627          49.000    22056517.600    90317694.243 8     -2341.267          48.850    22056518.060    90317711.004 7     -2341.269          43.650                                                                  
G08  24998557.320   131368274.630 6     -1836.985          40.250    24998564.420   102364919.141 5     -1431.420          32.750    24998564.840   102364880.880 6     -1431.423          38.650    24998564.540    98099617.230 7     -1371.760          42.000  
G14  21237535.260   111604000.449 8      2121.807          48.400    21237536.280    86964178.341 7      1653.355          45.450    21237536.720    86964162.088 8      1653.354          49.550    21237540.480    83340674.072 8      1584.591          52.750  
G17  22328553.300   117337343.939 7       556.472          47.750    22328554.340    91431714.669 7       433.617          47.350    22328554.780    91431704.421 7       433.617          45.400                                                                  
G19  23574414.020   123884386.398 7      1606.402          43.950    23574414.640    96533292.823 6      1251.741          40.100                                                                                                                                  
G21  23768131.380   124902336.686 7     -3170.075          46.100    23768132.360    97326467.254 6     -2470.190          37.950                                                                                                                                  
G22  22707426.260   119328331.652 7      -524.621          47.750    22707425.720    92983157.488 7      -408.795          42.750                                                                                                                                  
G28  22664309.780   119101760.916 7      2506.263          47.300    22664310.120    92806569.405 6      1952.935          39.700                                                                                                                                  
G30  21347212.320   112180361.520 8     -1177.028          49.000    21347215.600    87413273.684 8      -917.165          49.000    21347216.420    87413251.432 8      -917.166          48.850    21347216.560    83771057.749 8      -878.908          53.350  
R05  24076110.160                        2231.229          33.950    24076114.760                        1735.399          29.550    24076118.940   100100475.890 4      1735.407          27.200  
R09  20312503.600   108467594.502 8     -2896.187          51.250    20312507.080    84363685.869 8     -2252.591          48.550    20312507.200    84363694.119 7     -2252.591          47.500  
R10  19336665.720   103075301.555 8       850.594          49.600                                                                                                                                  
R20  20841611.780   111449441.050 6     -2359.199          37.700    20841616.800    86682895.454 7     -1834.933          46.400    20841615.800    86682896.705 7     -1834.932          46.350  
R21  21023719.000   112502175.292 8       678.708          49.400    21023721.880    87501736.392 7       527.885          47.100    21023721.860    87501714.644 7       527.885          46.200  
E01  27691786.460   145521328.145 7      2651.051          44.100    27691790.840   111503365.145 5      2031.708          30.800    27691792.820   108668557.624 7      1979.935          43.400  
E13  23636996.820   124213258.860 8     -1291.672          50.550    23636999.600    95176392.720 6      -989.612          40.050    23637001.640    92756650.478 8      -964.525          51.750  
E15  26950236.360   141624426.453 7     -2511.873          45.450    26950242.980   108517432.499 5     -1924.808          31.850    26950244.600   105758452.810 7     -1875.795          43.150  
E21  23965406.980   125939076.222 8      1363.738          50.950    23965410.540    96498767.871 6      1045.050          40.350    23965412.280    94045422.963 8      1018.442          51.600  
E26  24045812.520   126361622.147 8      1118.666          49.850    24045817.660    96822549.863 6       857.110          38.700    24045819.620    94360958.569 8       835.396          49.800  
E27  24051762.660   126392812.895 8     -1169.115          50.900    24051766.980    96846446.042 6      -895.776          39.950    24051769.140    94384229.722 8      -873.048          51.250  
C01  37373430.100   194613251.580 7         6.864          47.250                                                                  
C02  37116521.160   193275455.973 7        23.937          43.250                                                                  
C03  36383454.560   189458185.603 7        36.973          47.550    36383452.460   146501093.586 5        28.768          35.750  
C04  38344180.460   199668202.523 7         9.356          43.500                                                                  
C05  39259115.040   204432496.784 6        24.688          41.300                                                                  
C07  36034909.940   187643222.406 7       505.187          47.550    36034906.100   145097619.983 6       390.637          36.600  
C08  36442136.900   189763765.321 7       418.576          47.050    36442133.720   146737355.893 6       323.733          36.550  
C09  39534228.060   205865090.842 6     -1473.743          41.050                                                                  
C10  36598111.140   190575963.117 7       680.825          45.200    36598110.360   147365395.244 5       526.406          35.250  
C11  22749978.980   118465099.122 7     -1295.359          46.950    22749978.720    91604729.946 6     -1001.800          38.050  
C13  36898739.100   192141411.313 7       766.956          47.650    36898744.220   148575948.064 5       593.065          33.950  
C14  25242686.000   131445290.685 7      2174.563          42.850    25242686.800   101641836.224 4      1681.476          29.600  
C23  23211290.500   120867290.397 8      1523.797          49.850                                                                  
C24  25682587.340   133735959.549 7     -3225.424          47.350                                                                  
C25  22268650.240   115958688.999 8     -1431.006          50.650                                                                  
C28  24867534.020   129491773.446 7      1401.994          46.450                                                                  
> 2021 06 10 03 36 25.0000000  0 39                     
G01  21032538.220   110526724.978 8     -2591.377          48.750    21032541.800    86124727.605 8     -2019.257          48.950    21032541.860    86124731.365 8     -2019.257          48.900    21032541.380    82536205.479 8     -1935.198          52.050  
G03  22172572.620   116517666.136 8      1457.533          48.400    22172577.320    90793012.473 8      1135.740          48.400    22172578.160    90793016.228 7      1135.740          47.300    22172578.060    87009992.854 8      1088.237          50.100  
G06  23963884.300   125931074.497 7      3148.188          43.700    23963891.060    98128117.690 7      2453.133          43.300    23963892.020    98128117.444 7      2453.133          43.250    23963892.260    94039446.313 7      2350.806          45.250  
G07  22057086.880   115910739.057 8     -3004.256          48.850    22057089.320    90320035.277 8     -2340.981          48.700    22057089.760    90320052.037 7     -2340.981          44.100                                                                  
G08  24998906.840   131370111.491 6     -1836.765          40.150    24998913.980   102366350.434 6     -1431.252          36.050    24998914.360   102366312.178 6     -1431.251          39.100    24998914.100    98100988.906 6     -1371.558          41.600  
G14  21237131.460   111601878.456 8      2122.035          48.600    21237132.460    86962524.821 7      1653.532          45.600    21237132.920    86962508.572 8      1653.532          49.900    21237136.680    83339089.474 8      1584.609          52.300  
G17  22328447.340   117336787.139 7       556.980          47.800    22328448.380    91431280.786 7       434.010          47.650    22328448.840    91431270.536 7       434.010          45.550                                                                  
G19  23574108.300   123882779.905 7      1606.983          44.050    23574108.920    96532040.990 6      1252.193          41.350                                                                                                                                  
G21  23768734.580   124905506.465 7     -3169.426          46.100    23768735.540    97328937.194 6     -2469.686          39.800                                                                                                                                  
G22  22707526.120   119328856.425 7      -524.779          47.900    22707525.580    92983566.379 7      -408.921          43.200                                                                                                                                  
G28  22663832.840   119099254.572 7      2506.600          47.450    22663833.160    92804616.395 6      1953.194          40.300                                                                                                                                  
G30  21347436.300   112181538.601 8     -1177.239          48.800    21347439.600    87414190.873 8      -917.332          48.800    21347440.420    87414168.617 8      -917.332          49.250    21347440.560    83771936.732 8      -879.081          52.950  
R05  24075691.940   128698376.25015      2231.541          30.900                                                                    24075701.880   100098740.136 4      1735.648          26.550  
R09  20313045.980   108470490.754 8     -2896.264          51.250    20313049.440    84365938.493 8     -2252.654          48.400    20313049.560    84365946.741 7     -2252.653          47.400  
R10  19336506.180   103074451.165 8       850.191          49.400                                                                                                                                  
R20  20842052.940   111451799.930 6     -2358.386          37.600    20842057.900    86684730.127 7     -1834.302          46.250    20842056.900    86684731.375 7     -1834.301          46.200  
R21  21023592.180   112501496.628 8       678.620          49.550    21023595.060    87501208.526 7       527.814          46.800    21023595.040    87501186.778 7       527.814          46.050  
E01  27691281.940   145518676.772 7      2651.724          44.050    27691286.240   111501333.60014      2031.739          29.550    27691288.280   108666577.726 7      1980.093          42.850  
E13  23637242.600   124214550.497 8     -1291.467          50.550    23637245.400    95177382.429 6      -989.482          38.950    23637247.440    92757615.015 8      -964.474          51.300  
E15  26950714.340   141626938.189 7     -2511.446          45.500    26950720.520   108519357.068 5     -1924.267          30.600    26950722.580   105760328.461 7     -1875.576          42.550  
E21  23965147.460   125937712.412 8      1363.930          50.900    23965151.020    96497722.879 6      1045.054          39.350    23965152.760    94044404.543 8      1018.429          51.050  
E26  24045599.640   126360503.437 8      1118.780          49.850    24045604.780    96821692.671 6       857.184          37.600    24045606.740    94360123.175 8       835.402          49.400  
E27  24051985.120   126393982.028 8     -1169.063          51.050    24051989.480    96847341.876 6      -895.875          38.750    24051991.620    94385102.778 8      -873.040          50.900  
C01  37373428.780   194613244.748 7         7.000          47.500                                                                  
C02  37116516.540   193275431.942 7        24.442          43.150                                                                  
C03  36383447.400   189458148.356 7        37.503          47.600    36383445.380   146501064.800 5        28.963          34.550  
C04  38344178.680   199668193.236 7         9.619          43.450                                                                  
C05  39259110.240   204432471.802 6        25.279          41.300                                                                  
C07  36034812.900   187642717.073 7       505.520          47.700    36034809.080   145097229.219 5       390.874          35.550  
C08  36442056.500   189763346.607 7       418.877          47.100    36442053.340   146737032.131 5       323.801          35.350  
C09  39534510.980   205866564.034 6     -1472.776          41.550                                                                  
C10  36597980.360   190575282.106 7       681.262          45.450    36597979.580   147364868.648 5       526.729          34.000  
C11  22750227.720   118466394.405 7     -1295.221          47.000    22750227.440    91605731.527 6     -1001.464          36.800  
C13  36898591.780   192140644.236 7       767.281          47.700    36898596.920   148575354.921 5       593.276          32.700  
C14  25242268.360   131443115.898 7      2175.206          43.000    25242269.140   101640154.554 4      1681.725          28.250  
C23  23210997.860   120865766.575 8      1523.804          50.000                                                                  
C24  25683206.740   133739184.841 7     -3225.013          47.600                                                                  
C25  22268925.060   115960120.022 8     -1431.020          50.700                                                                  
C28  24867264.760   129490371.417 7      1402.117          46.600                                                                  
> 2021 06 10 03 36 26.0000000  0 39                     
G01  21033031.400   110529316.646 8     -2592.114          48.650    21033034.980    86126747.096 8     -2019.829          48.850    21033035.040    86126750.853 8     -2019.829          48.800    21033034.560    82538140.807 8     -1935.664          52.350  
G03  22172295.340   116516209.070 8      1456.662          48.350    22172300.040    90791877.105 8      1135.063          48.100    22172300.900    90791880.859 7      1135.063          47.500    22172300.780    87008904.771 8      1087.752          50.350  
G06  23963285.280   125927926.599 7      3147.719          43.600    23963292.060    98125664.795 7      2452.770          43.500    23963293.020    98125664.547 7      2452.769          43.250    23963293.240    94037095.604 7      2350.370          45.450  
G07  22057658.620   115913743.542 8     -3004.869          48.900    22057661.060    90322376.438 8     -2341.457          48.800    22057661.500    90322393.196 7     -2341.457          43.950                                                                  
G08  24999256.340   131371948.181 6     -1837.307          40.250    24999263.500   102367781.609 5     -1431.678          35.250    24999263.880   102367743.373 6     -1431.671          39.350    24999263.600    98102360.454 6     -1371.885          41.850  
G14  21236727.660   111599756.601 8      2121.312          48.600    21236728.700    86960871.438 7      1652.972          45.600    21236729.160    86960855.185 8      1652.971          49.800    21236732.900    83337504.967 8      1584.154          52.550  
G17  22328341.380   117336230.281 7       556.511          47.800    22328342.420    91430846.875 7       433.646          47.950    22328342.880    91430836.628 7       433.646          45.750                                                                  
G19  23573802.620   123881173.453 7      1606.063          44.050    23573803.220    96530789.216 6      1251.480          41.650                                                                                                                                  
G21  23769337.740   124908676.184 7     -3169.857          45.950    23769338.720    97331407.109 6     -2470.020          40.550                                                                                                                                  
G22  22707626.060   119329381.648 7      -525.794          47.800    22707625.520    92983975.654 7      -409.709          42.600                                                                                                                                  
G28  22663355.880   119096748.148 7      2506.180          47.650    22663356.200    92802663.339 6      1952.867          40.350                                                                                                                                  
G30  21347660.360   112182716.086 8     -1177.950          48.950    21347663.680    87415108.396 8      -917.884          49.100    21347664.500    87415086.143 8      -917.885          49.200    21347664.640    83772816.025 8      -879.714          53.200  
R05  24075274.620   128696144.513 5      2231.575          33.050    24075282.200                        1735.670          28.300    24075283.960   100097004.335 4      1735.672          27.350  
R09  20313588.460   108473387.583 8     -2897.394          51.050    20313591.940    84368191.588 7     -2253.530          47.750    20313592.060    84368199.838 7     -2253.529          46.850  
R10  19336346.780   103073601.484 8       848.889          49.250                                                                                                                                  
R20  20842494.080   111454158.867 6     -2359.162          37.550    20842499.040    86686564.865 7     -1834.902          45.800    20842498.040    86686566.110 7     -1834.902          45.850  
R21  21023465.420   112500818.345 8       677.674          49.100    21023468.300    87500680.980 7       527.081          46.200    21023468.280    87500659.230 7       527.081          45.600  
E01  27690777.380   145516025.317 7      2651.142          44.050    27690781.700   111499301.97215      2031.299          30.350    27690783.720   108664597.742 7      1979.665          42.900  
E13  23637488.400   124215842.261 8     -1292.248          50.550    23637491.200    95178372.208 6      -990.058          39.850    23637493.260    92758579.636 8      -964.919          51.650  
E15  26951192.280   141629449.770 7     -2511.729          45.300    26951198.480   108521281.506 5     -1924.498          30.900    26951200.500   105762203.973 7     -1875.735          42.650  
E21  23964887.980   125936348.790 8      1363.231          50.850    23964891.540    96496678.027 6      1044.449          40.150    23964893.280    94043386.246 8      1017.932          51.300  
E26  24045386.800   126359384.952 8      1117.993          49.700    24045391.940    96820835.646 6       856.602          38.500    24045393.900    94359287.937 8       834.896          49.700  
E27  24052207.660   126395151.407 8     -1169.726          50.950    24052212.000    96848237.886 6      -896.274          39.700    24052214.140    94385976.016 8      -873.605          51.100  
C01  37373427.460   194613237.798 7         6.645          47.400                                                                  
C02  37116511.920   193275407.806 7        23.970          43.350                                                                  
C03  36383440.220   189458111.009 7        37.137          47.650    36383438.220   146501035.921 5        28.648          35.550  
C04  38344176.880   199668183.847 7         9.020          43.250                                                                  
C05  39259105.420   204432446.721 6        24.628          41.500                                                                  
C07  36034715.840   187642211.674 7       505.104          47.600    36034712.020   145096838.413 6       390.506          36.500  
C08  36441976.100   189762927.980 7       418.201          46.900    36441972.960   146736708.414 6       323.324          36.350  
C09  39534793.860   205868037.069 6     -1473.530          41.250                                                                  
C10  36597849.560   190574600.988 7       680.728          45.350    36597848.780   147364341.948 5       526.591          35.000  
C11  22750476.440   118467689.591 7     -1295.427          47.000    22750476.180    91606733.049 6     -1001.784          37.850  
C13  36898444.500   192139877.241 7       766.624          47.550    36898449.600   148574761.813 5       592.870          33.750  
C14  25241850.680   131440940.915 7      2174.737          42.850    25241851.480   101638472.712 4      1681.469          29.000  
C23  23210705.300   120864243.086 8      1523.080          50.050                                                                  
C24  25683826.120   133742410.123 7     -3225.671          47.500                                                                  
C25  22269199.940   115961551.407 8     -1431.881          50.750                                                                  
C28  24866995.540   129488969.458 7      1401.490          46.600                                                                  
> 2021 06 10 03 36 27.0000000  0 39                     
G01  21033524.620   110531908.622 8     -2592.285          48.650    21033528.220    86128766.822 8     -2019.961          48.600    21033528.280    86128770.578 8     -2019.961          49.000    21033527.800    82540076.379 8     -1935.857          52.200  
G03  22172018.140   116514752.380 8      1456.331          48.400    22172022.840    90790742.032 8      1134.808          48.350    22172023.700    90790745.786 7      1134.808          47.500    22172023.580    87007816.989 8      1087.550          50.300  
G06  23962686.300   125924778.894 7      3147.735          43.650    23962693.060    98123212.045 7      2452.783          43.800    23962694.020    98123211.797 7      2452.783          43.400    23962694.240    94034745.053 7      2350.296          45.350  
G07  22058230.380   115916748.198 8     -3004.872          48.900    22058232.820    90324717.733 8     -2341.459          48.850    22058233.260    90324734.490 7     -2341.459          44.150                                                                  
G08  24999605.820   131373784.695 6     -1836.211          40.000    24999613.000   102369212.634 5     -1430.819          33.300    24999613.360   102369174.421 6     -1430.817          38.950    24999613.080    98103731.895 6     -1371.583          41.600  
G14  21236323.900   111597634.909 8      2121.422          48.700    21236324.960    86959218.182 7      1653.059          45.550    21236325.400    86959201.925 8      1653.058          49.950    21236329.160    83335920.591 8      1584.197          52.350  
G17  22328235.380   117335673.373 7       556.935          47.700    22328236.440    91430412.927 7       433.977          47.200    22328236.900    91430402.678 7       433.977          45.950                                                                  
G19  23573496.900   123879566.957 7      1606.385          43.950    23573497.500    96529537.417 6      1251.732          41.050                                                                                                                                  
G21  23769940.900   124911845.830 7     -3169.904          46.350    23769941.900    97333876.967 6     -2470.056          39.800                                                                                                                                  
G22  22707726.100   119329907.335 7      -525.865          47.700    22707725.560    92984385.285 7      -409.765          42.900                                                                                                                                  
G28  22662878.920   119094241.680 7      2506.249          47.800    22662879.220    92800710.256 6      1952.923          40.200                                                                                                                                  
G30  21347884.520   112183894.071 8     -1178.285          48.950    21347887.840    87416026.308 8      -918.146          48.700    21347888.660    87416004.053 8      -918.146          49.300    21347888.800    83773695.681 8      -879.918          53.100  
R05  24074856.940   128693912.982 5      2231.579          34.200    24074867.320                        1735.673          26.750    24074866.260   100095268.687 4      1735.672          25.850  
R09  20314131.040   108476284.967 8     -2897.734          51.150    20314134.520    84370445.114 8     -2253.794          48.150    20314134.640    84370453.366 7     -2253.793          47.200  
R10  19336187.520   103072752.536 8       848.481          49.300                                                                                                                                  
R20  20842935.220   111456517.849 6     -2358.972          37.750    20842940.180    86688399.633 7     -1834.753          46.100    20842939.200    86688400.882 7     -1834.753          46.100  
R21  21023338.720   112500140.441 8       677.547          49.250    21023341.620    87500153.732 7       526.984          46.700    21023341.600    87500131.978 7       526.982          46.050  
E01  27690272.820   145513373.776 7      2651.370          43.900    27690277.200   111497270.266 5      2031.721          30.600    27690279.140   108662617.701 7      1979.854          42.850  
E13  23637734.240   124217134.157 8     -1292.083          50.600    23637737.040    95179362.112 6      -989.976          40.200    23637739.100    92759544.373 8      -964.942          51.450  
E15  26951670.200   141631961.230 7     -2511.499          45.250    26951676.400   108523205.849 5     -1924.249          30.900    26951678.420   105764079.389 7     -1875.464          42.350  
E21  23964628.520   125934985.361 8      1363.230          50.800    23964632.100    96495633.321 6      1044.463          40.500    23964633.820    94042368.101 8      1017.953          51.300  
E26  24045174.000   126358266.699 8      1118.061          49.900    24045179.140    96819978.811 6       856.549          38.750    24045181.100    94358452.880 8       834.857          49.550  
E27  24052430.240   126396321.089 8     -1169.953          50.800    24052434.580    96849134.140 6      -896.541          39.900    24052436.700    94386849.469 8      -873.642          50.950  
C01  37373426.100   194613230.784 7         6.952          47.350                                                                  
C02  37116507.260   193275383.598 7        23.954          43.500                                                                  
C03  36383433.040   189458073.579 7        37.263          47.600    36383431.040   146501006.980 5        28.772          35.750  
C04  38344175.060   199668174.352 7         9.575          43.400                                                                  
C05  39259100.580   204432421.547 6        25.393          41.250                                                                  
C07  36034618.780   187641706.247 7       505.322          47.700    36034614.960   145096447.574 6       390.852          36.800  
C08  36441895.720   189762509.459 7       418.252          47.000    36441892.560   146736384.775 6       323.438          36.750  
C09  39535076.700   205869509.881 6     -1472.627          41.250                                                                  
C10  36597718.720   190573919.761 7       681.312          45.350    36597717.960   147363815.184 5       526.747          35.250  
C11  22750725.160   118468984.737 7     -1295.242          47.150    22750724.880    91607734.532 6     -1001.675          37.950  
C13  36898297.200   192139110.305 7       766.790          47.650    36898302.340   148574168.792 5       592.738          34.150  
C14  25241432.980   131438765.725 7      2175.123          43.000    25241433.780   101636790.692 4      1682.049          29.900  
C23  23210412.800   120862719.982 8      1522.888          50.000                                                                  
C24  25684445.520   133745635.387 7     -3225.371          47.600                                                                  
C25  22269474.900   115962983.196 8     -1432.122          50.700                                                                  
C28  24866726.320   129487567.603 7      1401.854          46.550                                                                  
> 2021 06 10 03 36 28.0000000  0 39                     
G01  21034017.940   110534501.086 8     -2592.799          48.250    21034021.560    86130786.925 8     -2020.362          48.100    21034021.620    86130790.682 8     -2020.361          49.100    21034021.120    82542012.300 8     -1936.061          50.550  
G03  22171741.040   116513296.262 8      1455.810          48.400    22171745.760    90789607.403 8      1134.401          48.200    22171746.600    90789611.155 7      1134.402          47.900    22171746.480    87006729.624 8      1087.287          48.750  
G06  23962087.400   125921631.582 7      3147.168          43.500    23962094.160    98120759.595 7      2452.340          43.200    23962095.100    98120759.344 7      2452.339          43.950    23962095.320    94032394.764 7      2350.269          43.700  
G07  22058802.220   115919753.235 8     -3005.158          48.850    22058804.680    90327059.322 8     -2341.682          48.700    22058805.100    90327076.080 7     -2341.682          44.600                                                                  
G08  24999955.320   131375621.311 6     -1836.274          40.100    24999962.540   102370643.791 5     -1430.866          35.950    24999962.880   102370605.548 6     -1430.866          39.750    24999962.580    98105103.368 6     -1371.379          39.900  
G14  21235920.220   111595513.567 8      2121.393          48.600    21235921.280    86957565.190 7      1653.035          45.700    21235921.720    86957548.937 8      1653.035          50.150    21235925.500    83334336.481 8      1584.020          50.800  
G17  22328129.440   117335116.602 7       556.722          47.600    22328130.500    91429979.082 7       433.811          47.700    22328130.960    91429968.834 7       433.812          46.150                                                                  
G19  23573191.240   123877960.656 7      1606.204          44.000    23573191.840    96528285.770 6      1251.594          41.650                                                                                                                                  
G21  23770544.080   124915015.570 7     -3169.700          46.250    23770545.080    97336346.894 6     -2469.897          39.800                                                                                                                                  
G22  22707826.260   119330433.714 7      -526.634          47.600    22707825.720    92984795.450 7      -410.363          43.750                                                                                                                                  
G28  22662401.980   119091735.331 7      2506.420          47.550    22662402.280    92798757.258 6      1953.057          41.000                                                                                                                                  
G30  21348108.820   112185072.694 8     -1178.876          48.850    21348112.120    87416944.716 8      -918.605          48.600    21348112.960    87416922.460 8      -918.605          49.550    21348113.080    83774575.817 8      -880.328          51.500  
R05  24074439.880   128691681.574 5      2231.431          35.350    24074446.320                        1735.557          28.200    24074448.660   100093533.125 4      1735.552          26.600  
R09  20314673.780   108479183.105 8     -2898.431          51.000    20314677.260    84372699.222 8     -2254.335          48.400    20314677.380    84372707.472 7     -2254.335          47.550  
R10  19336028.440   103071904.528 8       847.561          49.200                                                                                                                                  
R20  20843376.440   111458877.098 6     -2359.446          37.600    20843381.380    86690234.609 7     -1835.123          46.500    20843380.380    86690235.858 7     -1835.123          46.550  
R21  21023212.120   112499463.078 8       677.152          49.300    21023215.040    87499626.903 7       526.678          46.750    21023215.020    87499605.148 7       526.677          46.250  
E01  27689768.260   145510722.316 7      2651.626          44.000    27689772.740   111495238.648 4      2031.559          28.050    27689774.580   108660637.717 6      1979.951          41.150  
E13  23637980.140   124218426.391 8     -1292.319          50.350    23637982.940    95180352.261 6      -990.164          37.900    23637985.000    92760509.343 8      -965.012          49.900  
E15  26952148.120   141634472.730 7     -2511.541          45.050    26952154.480   108525130.285 4     -1924.659          27.900    26952156.340   105765954.846 6     -1875.286          40.400  
E21  23964369.140   125933622.328 8      1362.902          50.650    23964372.720    96494588.919 6      1044.215          38.000    23964374.440    94041350.252 8      1017.767          49.650  
E26  24044961.300   126357148.877 8      1117.644          49.600    24044966.420    96819122.288 6       856.443          36.250    24044968.380    94357618.144 7       834.568          47.950  
E27  24052652.900   126397491.233 8     -1170.346          50.650    24052657.260    96850030.742 6      -896.700          37.500    24052659.380    94387723.276 8      -873.918          49.350  
C01  37373424.780   194613223.843 7         7.023          47.350                                                                  
C02  37116502.640   193275359.483 7        24.269          43.100                                                                  
C03  36383425.880   189458036.264 7        37.204          47.400    36383423.900   146500978.116 5        28.840          33.300  
C04  38344173.260   199668164.963 7         9.557          43.350                                                                  
C05  39259095.780   204432396.497 6        25.145          41.150                                                                  
C07  36034521.740   187641200.960 7       505.269          47.400    36034517.940   145096056.859 5       390.778          34.300  
C08  36441815.400   189762091.217 7       418.171          46.850    36441812.240   146736061.376 5       323.369          34.350  
C09  39535359.540   205870982.732 6     -1472.612          41.150                                                                  
C10  36597587.920   190573238.651 7       681.084          45.200    36597587.140   147363288.501 5       526.740          33.000  
C11  22750973.920   118470280.059 7     -1295.429          47.100    22750973.640    91608736.141 5     -1001.540          35.600  
C13  36898149.980   192138343.639 7       766.574          47.300    36898155.120   148573575.950 5       592.759          31.650  
C14  25241015.260   131436590.523 7      2175.315          42.950    25241016.100   101635108.703 4      1682.129          26.950  
C23  23210120.420   120861197.444 8      1522.284          49.850                                                                  
C24  25685064.940   133748860.851 7     -3225.559          47.400                                                                  
C25  22269749.960   115964415.568 8     -1432.584          50.600                                                                  
C28  24866457.160   129486166.063 7      1401.359          46.400                                                                  
> 2021 06 10 03 36 29.0000000  0 39                     
G01  21034511.320   110537093.802 8     -2592.969          48.600    21034514.940    86132807.226 8     -2020.494          48.700    21034515.000    86132810.983 8     -2020.494          48.900    21034514.520    82543948.422 8     -1936.218          52.550  
G03  22171464.020   116511840.480 8      1455.358          48.650    22171468.720    90788473.036 8      1134.051          48.750    22171469.580    90788476.792 7      1134.051          47.650    22171469.440    87005642.522 8      1086.901          50.700  
G06  23961488.520   125918484.396 7      3146.950          43.100    23961495.280    98118307.240 7      2452.171          43.000    23961496.220    98118306.994 7      2452.171          43.700    23961496.420    94030044.601 7      2349.938          45.650  
G07  22059374.100   115922758.417 8     -3005.507          49.000    22059376.540    90329401.026 8     -2341.952          48.900    22059376.960    90329417.785 7     -2341.952          44.500                                                                  
G08  25000304.800   131377457.757 6     -1836.337          40.050    25000311.980   102372074.787 5     -1430.916          34.250    25000312.340   102372036.545 6     -1430.915          39.200    25000312.040    98106474.730 6     -1371.298          41.700  
G14  21235516.560   111593392.393 8      2120.895          48.750    21235517.640    86955912.329 7      1652.648          45.400    21235518.080    86955896.077 8      1652.648          50.000    21235521.840    83332752.474 8      1583.896          52.700  
G17  22328023.460   117334559.753 7       556.726          47.500    22328024.540    91429545.177 7       433.814          47.400    22328025.000    91429534.927 7       433.814          45.950                                                                  
G19  23572885.600   123876354.373 7      1606.126          44.500    23572886.180    96527034.132 6      1251.534          40.650                                                                                                                                  
G21  23771147.260   124918185.224 7     -3169.817          46.550    23771148.240    97338816.754 6     -2469.986          40.350                                                                                                                                  
G22  22707926.500   119330960.531 8      -527.200          48.000    22707925.980    92985205.961 7      -410.804          42.950                                                                                                                                  
G28  22661925.020   119089228.920 7      2506.383          47.600    22661925.320    92796804.215 6      1953.028          40.650                                                                                                                                  
G30  21348333.180   112186251.755 8     -1179.503          48.750    21348336.500    87417863.467 8      -919.093          49.150    21348337.320    87417841.214 8      -919.093          49.300    21348337.460    83775456.282 8      -880.646          53.300  
R05  24074022.660   128689450.335 5      2230.777          35.300    24074029.160                        1735.049          27.800    24074031.260   100091797.722 4      1735.046          27.500  
R09  20315216.600   108482081.784 8     -2899.126          51.300    20315220.080    84374953.749 8     -2254.876          48.400    20315220.200    84374962.001 7     -2254.876          47.400  
R10  19335869.500   103071057.262 8       846.729          49.600                                                                                                                                  
R20  20843817.660   111461236.371 6     -2359.584          38.000    20843822.580    86692069.603 7     -1835.229          46.550    20843821.580    86692070.848 7     -1835.229          46.300  
R21  21023085.600   112498786.046 8       676.765          49.600    21023088.520    87499100.325 7       526.376          46.700    21023088.500    87499078.570 7       526.375          46.200  
E01  27689263.720   145508070.799 7      2651.335          44.050    27689268.120   111493207.956 5      2031.396          31.800    27689270.000   108658657.668 7      1980.049          43.100  
E13  23638226.060   124219718.749 8     -1292.607          50.600    23638228.880    95181342.501 6      -990.336          40.950    23638230.920    92761474.410 8      -965.157          51.800  
E15  26952626.020   141636984.075 7     -2511.498          45.200    26952632.360   108527054.496 5     -1923.983          32.000    26952634.220   105767830.187 7     -1875.242          42.250  
E21  23964109.800   125932259.474 8      1362.668          50.800    23964113.380    96493544.642 6      1044.201          41.350    23964115.100    94040332.528 8      1017.633          51.550  
E26  24044748.620   126356031.273 8      1117.396          49.850    24044753.740    96818265.938 6       856.203          39.600    24044755.720    94356783.562 8       834.467          49.800  
E27  24052875.620   126398661.631 8     -1170.702          50.850    24052879.980    96850927.527 6      -896.881          40.700    24052882.080    94388597.271 8      -874.138          51.300  
C01  37373423.420   194613216.816 7         6.917          47.550    37373423.440                           5.234          33.350  
C02  37116497.980   193275335.272 7        24.152          43.300                                                                  
C03  36383418.680   189457998.824 7        37.251          47.600    36383416.680   146500949.164 6        28.878          36.750  
C04  38344171.440   199668155.494 7         9.229          43.600                                                                  
C05  39259090.940   204432371.330 6        25.071          41.500                                                                  
C07  36034424.700   187640695.593 7       505.289          47.650    36034420.880   145095666.074 6       390.812          37.600  
C08  36441735.100   189761673.077 7       417.753          47.050    36441731.940   146735738.027 6       323.260          37.550  
C09  39535642.360   205872455.408 6     -1472.810          41.550    39535642.340                       -1138.991          29.500  
C10  36597457.100   190572557.434 7       681.236          45.550    36597456.340   147362761.753 6       526.729          36.200  
C11  22751222.660   118471575.305 7     -1295.412          47.400    22751222.360    91609737.722 6     -1001.694          38.950  
C13  36898002.760   192137577.024 7       766.465          47.550    36898007.900   148572983.142 5       592.803          34.950  
C14  25240597.500   131434415.119 7      2175.276          43.300    25240598.360   101633426.532 5      1682.135          30.850  
C23  23209828.100   120859675.257 8      1521.800          50.050                                                                  
C24  25685684.360   133752086.282 7     -3225.554          47.350                                                                  
C25  22270025.100   115965848.313 8     -1432.967          50.700                                                                  
C28  24866188.020   129484764.583 7      1401.396          46.700                                                                  
> 2021 06 10 03 36 30.0000000  0 39                     
G01  21035004.760   110539686.946 8     -2593.015          48.700    21035008.400    86134827.850 8     -2020.532          48.850    21035008.460    86134831.606 8     -2020.532          48.400    21035007.980    82545884.869 8     -1936.458          52.450  
G03  22171187.080   116510385.198 8      1455.373          48.650    22171191.800    90787339.043 8      1134.059          48.550    22171192.660    90787342.798 7      1134.059          47.150    22171192.500    87004555.792 8      1086.729          50.550  
G06  23960889.700   125915337.521 7      3146.943          43.350    23960896.440    98115855.121 7      2452.162          43.350    23960897.400    98115854.877 7      2452.163          43.500    23960897.600    94027694.653 7      2350.083          45.650  
G07  22059946.000   115925763.876 8     -3005.394          48.800    22059948.460    90331742.932 8     -2341.867          48.900    22059948.880    90331759.692 7     -2341.867          43.950                                                                  
G08  25000654.260   131379294.161 6     -1836.064          40.000    25000661.420   102373505.727 5     -1430.701          34.650    25000661.800   102373467.493 6     -1430.706          39.050    25000661.500    98107846.073 6     -1371.154          41.300  
G14  21235112.960   111591271.484 8      2121.129          48.800    21235114.040    86954259.671 7      1652.828          44.750    21235114.480    86954243.416 8      1652.828          49.400    21235118.260    83331168.688 8      1583.886          52.650  
G17  22327917.520   117334002.974 7       557.080          47.600    22327918.580    91429111.317 7       434.088          47.500    22327919.040    91429101.065 7       434.088          45.350                                                                  
G19  23572579.960   123874748.198 7      1606.270          44.800    23572580.540    96525782.556 6      1251.642          41.100                                                                                                                                  
G21  23771750.440   124921354.911 7     -3169.436          46.600    23771751.400    97341286.636 6     -2469.691          39.700                                                                                                                                  
G22  22708026.860   119331487.937 8      -527.410          48.350    22708026.340    92985616.922 7      -410.971          42.050                                                                                                                                  
G28  22661448.080   119086722.573 7      2506.610          47.800    22661448.360    92794851.209 6      1953.202          40.050                                                                                                                                  
G30  21348557.660   112187431.390 8     -1179.490          48.750    21348560.980    87418782.655 8      -919.087          49.400    21348561.800    87418760.401 8      -919.086          48.850    21348561.940    83776337.187 8      -880.937          53.250  
R05  24073605.220   128687219.141 5      2232.053          34.750    24073611.280   100090069.11314      1736.033          28.200    24073613.720   100090062.343 4      1736.038          26.500  
R09  20315759.560   108484981.128 8     -2899.412          51.400    20315763.040    84377208.784 8     -2255.102          48.100    20315763.140    84377217.034 7     -2255.102          47.150  
R10  19335710.720   103070210.870 8       846.306          49.850                                                                                                                                  
R20  20844258.900   111463595.810 6     -2359.283          37.950    20844263.800    86693904.710 7     -1835.000          46.150    20844262.800    86693905.957 7     -1835.000          46.100  
R21  21022959.180   112498109.462 8       676.742          49.750    21022962.080    87498574.082 7       526.354          46.550    21022962.060    87498552.328 7       526.354          45.900  
E01  27688759.140   145505419.276 7      2652.003          44.050    27688763.520   111491176.284 5      2031.422          31.450    27688765.440   108656677.651 7      1980.192          42.900  
E13  23638472.020   124221011.351 8     -1292.426          50.750    23638474.840    95182332.953 6      -990.451          40.800    23638476.900    92762439.672 8      -965.157          51.700  
E15  26953103.920   141639495.401 7     -2511.081          44.950    26953109.900   108528978.779 5     -1924.003          30.800    26953112.100   105769705.518 6     -1875.033          41.850  
E21  23963850.520   125930896.933 8      1362.714          51.000    23963854.100    96492500.627 6      1044.031          41.100    23963855.820    94039315.058 8      1017.525          51.400  
E26  24044536.020   126354914.026 8      1117.369          49.950    24044541.140    96817409.862 6       856.226          39.350    24044543.120    94355949.258 8       834.354          49.750  
E27  24053098.420   126399832.427 8     -1170.672          51.050    24053102.780    96851824.642 6      -897.145          40.500    24053104.880    94389471.569 8      -874.252          51.200  
C01  37373422.080   194613209.828 7         7.267          47.600    37373422.380   150487283.43515         5.623          35.200  
C02  37116493.340   193275311.063 7        24.667          43.250                                                                  
C03  36383411.500   189457961.430 7        37.663          47.350    36383409.500   146500920.244 6        29.272          36.550  
C04  38344169.620   199668146.053 7         9.734          43.700                                                                  
C05  39259086.100   204432346.198 6        25.674          41.500                                                                  
C07  36034327.660   187640190.298 7       505.598          47.600    36034323.860   145095275.365 6       390.851          37.250  
C08  36441654.840   189761255.116 7       418.175          47.000    36441651.680   146735414.853 6       323.210          37.150  
C09  39535925.140   205873927.975 6     -1472.186          41.150    39535927.500                       -1138.495          28.900  
C10  36597326.280   190571876.231 7       681.606          45.300    36597325.540   147362234.999 5       526.949          35.950  
C11  22751471.420   118472870.620 7     -1294.935          47.400    22751471.120    91610739.349 6     -1001.467          38.700  
C13  36897855.560   192136810.590 7       766.641          47.600    36897860.720   148572390.501 5       592.627          34.800  
C14  25240179.720   131432239.627 7      2175.923          43.000    25240180.560   101631744.319 5      1682.162          30.350  
C23  23209535.860   120858153.562 8      1521.734          49.900                                                                  
C24  25686303.780   133755311.827 7     -3225.447          47.350                                                                  
C25  22270300.340   115967281.562 8     -1433.134          50.550                                                                  
C28  24865918.940   129483363.337 7      1401.444          46.650                                                                  
> 2021 06 10 03 36 31.0000000  0 39                     
G01  21035498.300   110542280.517 8     -2593.563          48.400    21035501.940    86136848.812 8     -2020.958          48.250    21035502.000    86136852.568 7     -2020.958          47.950    21035501.520    82547821.628 8     -1936.852          52.350  
G03  22170910.240   116508930.441 8      1454.434          48.450    22170914.960    90786205.469 8      1133.327          48.550    22170915.820    90786209.223 7      1133.328          46.600    22170915.660    87003469.445 8      1086.258          50.450  
G06  23960290.940   125912190.963 7      3146.591          43.300    23960297.680    98113403.260 7      2451.890          43.200    23960298.640    98113403.014 7      2451.890          42.950    23960298.820    94025344.963 7      2349.679          45.500  
G07  22060518.000   115928769.636 8     -3005.922          48.750    22060520.440    90334085.078 8     -2342.278          49.400    22060520.840    90334101.836 7     -2342.279          43.150                                                                  
G08  25001003.720   131381130.554 6     -1836.129          40.150    25001010.900   102374936.688 5     -1430.754          32.500    25001011.280   102374898.442 6     -1430.756          38.850    25001010.960    98109217.401 6     -1371.377          41.300  
G14  21234709.420   111589150.883 8      2120.620          48.650    21234710.500    86952607.253 7      1652.432          44.450    21234710.940    86952590.998 8      1652.432          48.950    21234714.720    83329585.122 8      1583.531          52.600  
G17  22327811.580   117333446.284 7       556.726          47.650    22327812.640    91428677.535 7       433.813          47.400    22327813.120    91428667.287 7       433.813          44.950                                                                  
G19  23572274.340   123873142.159 7      1606.145          44.950    23572274.900    96524531.101 6      1251.545          39.200                                                                                                                                  
G21  23772353.620   124924524.649 7     -3169.512          46.650    23772354.620    97343756.562 6     -2469.750          38.550                                                                                                                                  
G22  22708127.320   119332015.950 8      -528.036          48.200    22708126.820    92986028.359 6      -411.457          41.300                                                                                                                                  
G28  22660971.140   119084216.305 7      2506.569          47.600    22660971.440    92792898.277 6      1953.171          38.950                                                                                                                                  
G30  21348782.240   112188611.639 8     -1180.392          48.600    21348785.580    87419702.328 8      -919.787          48.650    21348786.400    87419680.076 8      -919.787          48.450    21348786.540    83777218.535 8      -881.498          53.150  
R05  24073188.400   128684988.305 5      2230.862          34.850    24073192.520   100088334.003 4      1735.105          29.050    24073196.180   100088327.259 4      1735.114          26.150  
R09  20316302.660   108487881.177 8     -2900.238          51.100    20316306.120    84379464.373 7     -2255.743          47.900    20316306.240    84379472.623 7     -2255.743          46.900  
R10  19335552.120   103069365.382 8       845.158          49.700                                                                                                                                  
R20  20844700.220   111465955.463 6     -2359.648          37.700    20844705.060    86695739.994 7     -1835.283          46.050    20844704.060    86695741.238 7     -1835.283          46.050  
R21  21022832.840   112497433.396 8       675.938          49.400    21022835.740    87498048.249 7       525.730          46.350    21022835.720    87498026.499 7       525.730          45.750  
E01  27688254.600   145502767.814 7      2651.658          44.050    27688258.940   111489143.632 5      2031.669          30.950    27688260.880   108654697.662 7      1980.161          43.050  
E13  23638718.060   124222304.239 8     -1292.901          50.750    23638720.880    95183323.600 6      -990.700          40.300    23638722.940    92763405.139 8      -965.479          51.600  
E15  26953581.820   141642006.735 7     -2511.253          44.750    26953587.940   108530928.023 5     -1924.238          30.300    26953590.000   105771580.867 6     -1875.266          41.500  
E21  23963591.320   125929534.746 8      1362.193          50.800    23963594.880    96491456.872 6      1043.721          40.650    23963596.600    94038297.831 8      1017.221          51.350  
E26  24044323.500   126353797.152 8      1116.711          49.800    24044328.600    96816554.069 6       855.739          38.900    24044330.580    94355115.225 8       833.926          49.700  
E27  24053321.280   126401003.646 8     -1171.394          50.900    24053325.640    96852722.063 6      -897.533          40.200    24053327.760    94390346.176 8      -874.719          51.050  
C01  37373420.740   194613202.884 7         7.144          47.200    37373420.700   150487278.063 5         5.602          34.800  
C02  37116488.700   193275286.933 7        24.180          43.150                                                                  
C03  36383404.340   189457924.089 7        37.440          47.400    36383402.320   146500891.383 6        28.834          36.050  
C04  38344167.820   199668136.661 7         9.377          43.400                                                                  
C05  39259081.300   204432321.138 6        25.078          40.900                                                                  
C07  36034230.640   187639685.123 7       505.135          47.400    36034226.860   145094884.718 6       390.619          36.850  
C08  36441574.620   189760837.407 7       417.717          46.800    36441571.460   146735091.847 6       323.011          36.800  
C09  39536207.940   205875400.539 6     -1472.534          40.900    39536210.640                       -1138.622          28.250  
C10  36597195.480   190571195.069 7       681.160          45.200    36597194.700   147361708.267 5       526.967          35.600  
C11  22751720.180   118474166.033 7     -1295.292          47.400    22751719.860    91611741.033 6     -1001.659          38.150  
C13  36897708.420   192136044.380 7       766.226          47.400    36897713.580   148571798.015 5       592.441          34.150  
C14  25239761.920   131430064.077 7      2175.882          42.700    25239762.720   101630062.022 4      1682.718          29.850  
C23  23209243.740   120856632.375 8      1521.063          49.850                                                                  
C24  25686923.240   133758537.505 7     -3225.524          47.050                                                                  
C25  22270575.680   115968715.340 8     -1433.903          50.500                                                                  
C28  24865649.880   129481962.349 7      1400.815          46.250                                                                  
> 2021 06 10 03 36 32.0000000  0 39                     
G01  21035991.940   110544874.649 8     -2594.526          48.100    21035995.600    86138870.216 7     -2021.709          47.950    21035995.660    86138873.972 7     -2021.709          47.850    21035995.180    82549758.791 8     -1937.369          52.200  
G03  22170633.520   116507476.294 8      1453.671          48.350    22170638.240    90785072.371 8      1132.733          48.300    22170639.100    90785076.130 7      1132.734          46.150    22170638.940    87002383.560 8      1085.616          50.350  
G06  23959692.260   125909044.858 7      3145.717          43.300    23959699.000    98110951.756 7      2451.209          43.900    23959699.960    98110951.507 7      2451.209          42.750    23959700.120    94022995.589 7      2349.132          45.300  
G07  22061090.040   115931775.816 8     -3006.549          48.450    22061092.500    90336427.558 8     -2342.766          48.350    22061092.900    90336444.316 7     -2342.767          42.850                                                                  
G08  25001353.180   131382967.034 6     -1836.435          40.250    25001360.340   102376367.712 5     -1430.991          35.300    25001360.760   102376329.466 6     -1430.992          38.300    25001360.420    98110588.795 6     -1371.552          41.200  
G14  21234305.960   111587030.702 8      2119.952          48.400    21234307.040    86950955.166 7      1651.912          44.600    21234307.480    86950938.911 8      1651.912          48.800    21234311.260    83328001.876 8      1583.041          52.350  
G17  22327705.660   117332889.794 7       556.231          47.550    22327706.760    91428243.911 7       433.429          47.600    22327707.240    91428233.663 7       433.429          44.500                                                                  
G19  23571968.760   123871536.367 7      1605.614          44.750    23571969.340    96523279.839 6      1251.132          39.300                                                                                                                                  
G21  23772956.820   124927694.554 7     -3170.292          46.750    23772957.800    97346226.616 6     -2470.359          38.400                                                                                                                                  
G22  22708227.940   119332544.698 8      -529.224          48.050    22708227.440    92986440.371 6      -412.382          41.200                                                                                                                                  
G28  22660494.240   119081710.234 7      2505.872          47.600    22660494.540    92790945.496 6      1952.629          39.200                                                                                                                                  
G30  21349006.960   112189792.609 8     -1181.337          48.550    21349010.320    87420622.562 7      -920.523          47.950    21349011.120    87420600.310 8      -920.523          48.350    21349011.260    83778100.416 8      -882.196          53.000  
R05  24072770.860   128682757.747 5      2230.314          33.800    24072779.280   100086599.119 4      1734.682          28.750    24072779.100   100086592.384 4      1734.690          26.050  
R09  20316845.880   108490782.003 8     -2901.363          50.900    20316849.360    84381720.575 7     -2256.617          47.950    20316849.460    84381728.825 7     -2256.617          47.050  
R10  19335393.680   103068520.890 8       843.918          49.500                                                                                                                                  
R20  20845141.560   111468315.426 6     -2360.242          37.650    20845146.380    86697575.521 7     -1835.744          46.100    20845145.400    86697576.763 7     -1835.745          45.900  
R21  21022706.620   112496757.997 8       674.987          49.200    21022709.540    87497522.945 7       524.991          46.550    21022709.500    87497501.192 7       524.991          45.750  
E01  27687750.080   145500116.536 7      2651.175          43.950    27687754.360   111487112.112 5      2031.568          30.350    27687756.340   108652717.812 7      1979.672          42.950  
E13  23638964.140   124223597.517 8     -1293.577          50.600    23638966.980    95184314.546 6      -991.107          40.150    23638969.040    92764370.896 8      -965.920          51.400  
E15  26954059.720   141644518.174 7     -2511.502          44.350    26954065.900   108532852.369 5     -1924.285          30.650    26954067.900   105773456.288 6     -1875.455          41.500  
E21  23963332.180   125928173.004 8      1361.443          50.750    23963335.760    96490413.457 6      1043.195          40.500    23963337.460    94037280.943 8      1016.712          51.200  
E26  24044111.060   126352680.770 8      1115.954          49.850    24044116.160    96815698.665 6       855.247          38.700    24044118.140    94354281.559 8       833.451          49.400  
E27  24053544.260   126402175.385 8     -1172.079          50.700    24053548.620    96853619.875 6      -897.880          39.950    24053550.720    94391221.174 8      -875.238          50.850  
C01  37373419.440   194613196.101 7         6.676          47.050    37373419.460   150487272.819 5         5.169          34.550  
C02  37116484.100   193275262.958 7        23.872          43.150                                                                  
C03  36383397.200   189457886.907 7        37.053          47.150    36383395.200   146500862.621 5        28.584          35.800  
C04  38344166.040   199668127.408 7         9.007          43.300                                                                  
C05  39259076.520   204432296.231 6        24.641          40.950                                                                  
C07  36034133.660   187639180.146 7       504.840          47.300    36034129.880   145094494.233 6       390.486          36.750  
C08  36441494.480   189760420.024 7       417.267          46.800    36441491.300   146734769.110 6       322.579          36.700  
C09  39536490.740   205876873.143 6     -1472.805          41.000    39536493.360                       -1139.071          28.200  
C10  36597064.700   190570514.063 7       680.817          44.950    36597063.920   147361181.692 5       526.380          35.250  
C11  22751969.000   118475461.657 7     -1295.759          47.400    22751968.680    91612742.892 6     -1002.021          38.050  
C13  36897561.340   192135278.514 7       765.562          47.200    36897566.500   148571205.803 5       592.006          34.100  
C14  25239344.160   131427888.589 7      2175.552          42.400    25239344.940   101628379.823 4      1682.219          29.600  
C23  23208951.720   120855111.815 8      1520.174          49.750                                                                  
C24  25687542.740   133761763.438 7     -3226.134          47.100                                                                  
C25  22270851.140   115970149.761 8     -1434.787          50.350                                                                  
C28  24865380.900   129480561.700 7      1400.442          46.350                                                                  
> 2021 06 10 03 36 33.0000000  0 39                     
G01  21036485.620   110547468.965 8     -2594.413          48.100    21036489.280    86140891.763 7     -2021.621          47.850    21036489.340    86140895.522 8     -2021.621          48.250    21036488.860    82551696.109 8     -1937.323          52.300  
G03  22170356.860   116506022.436 8      1453.938          48.550    22170361.580    90783939.501 8      1132.942          48.450    22170362.440    90783943.257 7      1132.942          46.750    22170362.280    87001297.899 8      1085.668          50.350  
G06  23959093.600   125905898.805 7      3146.331          43.050    23959100.340    98108500.290 7      2451.688          43.050    23959101.300    98108500.041 7      2451.688          43.100    23959101.440    94020646.269 7      2349.462          45.250  
G07  22061662.120   115934782.064 8     -3006.021          48.600    22061664.580    90338770.089 8     -2342.355          48.700    22061664.980    90338786.845 7     -2342.356          43.400                                                                  
G08  25001702.600   131384803.280 6     -1835.805          40.100    25001709.840   102377798.555 6     -1430.500          36.450    25001710.180   102377760.305 6     -1430.501          38.900    25001709.840    98111960.023 6     -1371.045          41.300  
G14  21233902.500   111584910.584 8      2120.366          48.250    21233903.600    86949303.130 7      1652.235          45.000    21233904.040    86949286.877 8      1652.234          49.100    21233907.820    83326418.677 8      1583.275          52.400  
G17  22327599.740   117332333.155 7       556.881          47.600    22327600.820    91427810.170 7       433.936          47.750    22327601.320    91427799.920 7       433.936          44.800                                                                  
G19  23571663.180   123869930.499 7      1606.131          44.650    23571663.760    96522028.520 6      1251.534          39.650                                                                                                                                  
G21  23773560.000   124930864.297 7     -3169.676          46.300    23773560.980    97348696.546 6     -2469.879          38.700                                                                                                                                  
G22  22708328.640   119333073.815 8      -529.100          48.100    22708328.140    92986852.671 7      -412.285          42.250                                                                                                                                  
G28  22660017.320   119079204.005 7      2506.478          47.400    22660017.580    92788992.591 6      1953.101          39.400                                                                                                                                  
G30  21349231.760   112190973.941 8     -1181.361          48.650    21349235.120    87421543.078 8      -920.543          48.200    21349235.920    87421520.826 8      -920.543          48.650    21349236.060    83778982.577 8      -882.193          53.050  
R05  24072353.240   128680527.135 5      2231.000          33.550    24072361.180   100084864.193 4      1735.215          27.900    24072361.740   100084857.477 4      1735.226          26.850  
R09  20317389.220   108493683.301 8     -2901.471          51.050    20317392.680    84383977.143 8     -2256.700          48.050    20317392.780    84383985.391 7     -2256.700          47.000  
R10  19335235.380   103067677.048 8       843.657          49.800                                                                                                                                  
R20  20845582.880   111470675.352 6     -2359.554          37.550    20845587.700    86699411.020 7     -1835.209          46.250    20845586.720    86699412.265 7     -1835.209          46.050  
R21  21022580.460   112496082.871 8       675.107          49.300    21022583.360    87496997.847 7       525.085          46.600    21022583.340    87496976.096 7       525.085          45.800  
E01  27687245.540   145497465.065 7      2651.605          43.700    27687249.840   111485080.479 5      2031.878          31.350    27687251.780   108650737.808 7      1980.161          42.950  
E13  23639210.260   124224890.841 8     -1293.300          50.650    23639213.100    95185305.537 6      -990.859          40.650    23639215.160    92765336.687 8      -965.696          51.500  
E15  26954537.620   141647029.401 7     -2510.813          44.500    26954543.660   108534776.55115     -1923.960          31.050    26954545.780   105775331.547 6     -1874.968          41.550  
E21  23963073.080   125926811.366 8      1361.695          50.750    23963076.660    96489370.128 6      1043.380          41.050    23963078.360    94036264.140 8      1016.886          51.250  
E26  24043898.660   126351564.514 8      1116.362          49.750    24043903.740    96814843.362 6       855.285          39.100    24043905.720    94353448.003 8       833.584          49.500  
E27  24053767.260   126403347.310 8     -1171.855          50.700    24053771.640    96854517.866 6      -898.019          40.300    24053773.740    94392096.315 8      -875.063          50.950  
C01  37373418.120   194613189.152 7         7.201          47.200    37373419.120   150487267.469 5         5.384          34.950  
C02  37116479.460   193275238.789 7        24.353          43.000                                                                  
C03  36383390.020   189457849.547 7        37.708          47.250    36383388.040   146500833.744 6        29.067          36.200  
C04  38344164.240   199668118.009 7         9.664          43.300                                                                  
C05  39259071.700   204432271.132 6        25.301          41.100                                                                  
C07  36034036.660   187638675.034 7       505.269          47.400    36034032.880   145094103.659 6       390.742          37.200  
C08  36441414.320   189760002.678 7       417.551          46.800    36441411.160   146734446.387 6       322.737          37.100  
C09  39536773.480   205878345.494 6     -1472.199          40.750    39536775.040                       -1138.278          29.050  
C10  36596933.880   190569832.870 7       681.424          45.100    36596933.100   147360654.945 5       526.988          35.900  
C11  22752217.780   118476757.133 7     -1295.309          47.700    22752217.460    91613744.638 6     -1001.614          38.400  
C13  36897414.260   192134512.591 7       766.018          47.350    36897419.380   148570613.532 5       592.394          34.500  
C14  25238926.340   131425712.823 7      2176.209          42.800    25238927.080   101626697.377 5      1682.645          30.150  
C23  23208659.780   120853591.521 8      1520.290          49.900                                                                  
C24  25688162.240   133764989.264 7     -3225.787          47.050                                                                  
C25  22271126.660   115971584.479 8     -1434.860          50.400                                                                  
C28  24865111.920   129479161.066 7      1400.687          46.550                                                                  
